{"type": "FeatureCollection", "id": "http://data.archaeology.link/data/ancientports/Harbour_collection", "name": "Harbour_collection", "features": [{"type": "Feature", "id": "http://data.archaeology.link/data/ancientports/3439", "label": "Al-Mina, Tripoli, islet of el-Baqar (3439)", "properties": {}, "geometry": {"type": "Point", "coordinates": [35.8092, 34.45721]}}, {"type": "Feature", "id": "http://data.archaeology.link/data/ancientports/3790", "label": "Ayn Jawan (3790)", "properties": {}, "geometry": {"type": "Point", "coordinates": [49.95789, 26.7092]}}, {"type": "Feature", "id": "http://data.archaeology.link/data/ancientports/3693", "label": "ash-Sharma (3693)", "properties": {}, "geometry": {"type": "Point", "coordinates": [35.266, 28.0209]}}, {"type": "Feature", "id": "http://data.archaeology.link/data/ancientports/3934_2", "label": "Naval base (3934_2)", "properties": {}, "geometry": {"type": "Point", "coordinates": [29.904, 31.2085]}}, {"type": "Feature", "id": "http://data.archaeology.link/data/ancientports/861", "label": "Vignale (861)", "properties": {}, "geometry": {"type": "Point", "coordinates": [10.67991, 42.9663]}}, {"type": "Feature", "id": "http://data.archaeology.link/data/ancientports/740_1", "label": "Porticcio (740_1)", "properties": {}, "geometry": {"type": "Point", "coordinates": [8.802, 41.8903]}}, {"type": "Feature", "id": "http://data.archaeology.link/data/ancientports/2420_1", "label": "Akinti Burnu (2420_1)", "properties": {}, "geometry": {"type": "Point", "coordinates": [29.0469, 41.0676]}}, {"type": "Feature", "id": "http://data.archaeology.link/data/ancientports/322", "label": "Roman villa at Carrascona (322)", "properties": {}, "geometry": {"type": "Point", "coordinates": [-5.9809, 36.9748]}}, {"type": "Feature", "id": "http://data.archaeology.link/data/ancientports/1405", "label": "Cres, on the isle of Cres (1405)", "properties": {}, "geometry": {"type": "Point", "coordinates": [14.40806, 44.95895]}}, {"type": "Feature", "id": "http://data.archaeology.link/data/ancientports/2617", "label": "Zolotoye Vostochnoye (2617)", "properties": {}, "geometry": {"type": "Point", "coordinates": [36.1022, 45.4538]}}, {"type": "Feature", "id": "http://data.archaeology.link/data/ancientports/3568", "label": "Marsa Alam (3568)", "properties": {}, "geometry": {"type": "Point", "coordinates": [34.89259, 25.07765]}}, {"type": "Feature", "id": "http://data.archaeology.link/data/ancientports/911", "label": "Roman villa at Torre di Palidoro  (911)", "properties": {}, "geometry": {"type": "Point", "coordinates": [12.1424, 41.9128]}}, {"type": "Feature", "id": "http://data.archaeology.link/data/ancientports/3419", "label": "Qalat er-Rouss (3419)", "properties": {}, "geometry": {"type": "Point", "coordinates": [35.9168, 35.4176]}}, {"type": "Feature", "id": "http://data.archaeology.link/data/ancientports/4113", "label": "Bou Ghrara, Roman jetty with platform (4113)", "properties": {}, "geometry": {"type": "Point", "coordinates": [10.68204, 33.53255]}}, {"type": "Feature", "id": "http://data.archaeology.link/data/ancientports/3663", "label": "Marsa Qishran, in al-Sharifa lagoon (3663)", "properties": {}, "geometry": {"type": "Point", "coordinates": [40.01182, 20.25463]}}, {"type": "Feature", "id": "http://data.archaeology.link/data/ancientports/3825", "label": "Large bay south of Assalouyeh and north of Cape Nabon (3825)", "properties": {}, "geometry": {"type": "Point", "coordinates": [52.6556, 27.4234]}}, {"type": "Feature", "id": "http://data.archaeology.link/data/ancientports/1628", "label": "Le Piree, The Piraeus, with a possible lighthouse at Themistocles' tomb (1628)", "properties": {}, "geometry": {"type": "Point", "coordinates": [23.6379, 37.9399]}}, {"type": "Feature", "id": "http://data.archaeology.link/data/ancientports/3976", "label": "Bardia (3976)", "properties": {}, "geometry": {"type": "Point", "coordinates": [25.10202, 31.75919]}}, {"type": "Feature", "id": "http://data.archaeology.link/data/ancientports/2734", "label": "G\u00f6rele (2734)", "properties": {}, "geometry": {"type": "Point", "coordinates": [38.99222, 41.04457]}}, {"type": "Feature", "id": "http://data.archaeology.link/data/ancientports/3731", "label": "Bosaso, Bandar Kasim? Another possible location is Ceelayo, Elayo, Elayu, 33 km west of Bosaso, with black volcanic cliffs that may have been taken for a promontory. Also possible is Ras Hantara, Aantaara, 45 km NE of Bosasso, below the Karkaar frankincense production area (3731)", "properties": {}, "geometry": {"type": "Point", "coordinates": [49.177, 11.289]}}, {"type": "Feature", "id": "http://data.archaeology.link/data/ancientports/2944_1", "label": "West side of Rethymno, note the slipways located west of the castle, still partly visible under the coastal boulevard (2944_1)", "properties": {}, "geometry": {"type": "Point", "coordinates": [24.46869, 35.37107]}}, {"type": "Feature", "id": "http://data.archaeology.link/data/ancientports/1008", "label": "Roman villa at Capo di Massa (1008)", "properties": {}, "geometry": {"type": "Point", "coordinates": [14.3404, 40.6263]}}, {"type": "Feature", "id": "http://data.archaeology.link/data/ancientports/2449", "label": "Port Rosenets, near Cape Phoros (2449)", "properties": {}, "geometry": {"type": "Point", "coordinates": [27.53375, 42.44914]}}, {"type": "Feature", "id": "http://data.archaeology.link/data/ancientports/4029", "label": "Roman villa at Gasr en Nfeil (4029)", "properties": {}, "geometry": {"type": "Point", "coordinates": [20.1373, 31.0137]}}, {"type": "Feature", "id": "http://data.archaeology.link/data/ancientports/3574", "label": "Shams Alam Resort (3574)", "properties": {}, "geometry": {"type": "Point", "coordinates": [35.087, 24.69]}}, {"type": "Feature", "id": "http://data.archaeology.link/data/ancientports/3588", "label": "Marsa Halaib, Halayeb, in front of Geziret Hala'ib (3588)", "properties": {}, "geometry": {"type": "Point", "coordinates": [36.651, 22.247]}}, {"type": "Feature", "id": "http://data.archaeology.link/data/ancientports/3747", "label": "Ras Majdahah (3747)", "properties": {}, "geometry": {"type": "Point", "coordinates": [48.44885, 14.01241]}}, {"type": "Feature", "id": "http://data.archaeology.link/data/ancientports/1243", "label": "Otranto (1243)", "properties": {}, "geometry": {"type": "Point", "coordinates": [18.49087, 40.14818]}}, {"type": "Feature", "id": "http://data.archaeology.link/data/ancientports/1498", "label": "Isles of Palagruza (1498)", "properties": {}, "geometry": {"type": "Point", "coordinates": [16.262, 42.39]}}, {"type": "Feature", "id": "http://data.archaeology.link/data/ancientports/4168", "label": "Ain Atrous, near Korbous, Qurbus (4168)", "properties": {}, "geometry": {"type": "Point", "coordinates": [10.569, 36.8277]}}, {"type": "Feature", "id": "http://data.archaeology.link/data/ancientports/1457", "label": "Stobrec, near Split (1457)", "properties": {}, "geometry": {"type": "Point", "coordinates": [16.524, 43.5]}}, {"type": "Feature", "id": "http://data.archaeology.link/data/ancientports/2631", "label": "several places close to Sukho-Chaltyrskoye (2631)", "properties": {}, "geometry": {"type": "Point", "coordinates": [39.49956, 47.2443]}}, {"type": "Feature", "id": "http://data.archaeology.link/data/ancientports/3949", "label": "Dresieh, Drasia, at northern end of Marina el-Alamein (3949)", "properties": {}, "geometry": {"type": "Point", "coordinates": [28.954, 30.862]}}, {"type": "Feature", "id": "http://data.archaeology.link/data/ancientports/3954", "label": "Ras al-Gharqan, Ras Gregrien, Caesar Beach (3954)", "properties": {}, "geometry": {"type": "Point", "coordinates": [28.0114, 31.0904]}}, {"type": "Feature", "id": "http://data.archaeology.link/data/ancientports/3716", "label": "Barawa, Brava? (3716)", "properties": {}, "geometry": {"type": "Point", "coordinates": [44.031, 1.107]}}, {"type": "Feature", "id": "http://data.archaeology.link/data/ancientports/560_5", "label": "Trefeutec, near Plonevez-Porzay, large fish processing factory (560_5)", "properties": {}, "geometry": {"type": "Point", "coordinates": [-4.2704, 48.133]}}, {"type": "Feature", "id": "http://data.archaeology.link/data/ancientports/2270", "label": "Roman fort on the isle of Samiopoula (2270)", "properties": {}, "geometry": {"type": "Point", "coordinates": [26.792, 37.631]}}, {"type": "Feature", "id": "http://data.archaeology.link/data/ancientports/2157", "label": "Thassos, Limenas, Limenaria, on the North coast of the isle of Thasos, with its ancient lighthouse and another lighthouse at Cape Phanari (2157)", "properties": {}, "geometry": {"type": "Point", "coordinates": [24.7122, 40.7813]}}, {"type": "Feature", "id": "http://data.archaeology.link/data/ancientports/2150_1", "label": "Pyrgi tower at Kammeni Langada, on the isle of Anafi, Anafiye (2150_1)", "properties": {}, "geometry": {"type": "Point", "coordinates": [25.7408, 36.3502]}}, {"type": "Feature", "id": "http://data.archaeology.link/data/ancientports/4211", "label": "near Skikda (4211)", "properties": {}, "geometry": {"type": "Point", "coordinates": [6.8827, 36.9045]}}, {"type": "Feature", "id": "http://data.archaeology.link/data/ancientports/978", "label": "Punta Chiarito, on the isle of Ischia (978)", "properties": {}, "geometry": {"type": "Point", "coordinates": [13.87906, 40.69669]}}, {"type": "Feature", "id": "http://data.archaeology.link/data/ancientports/3679", "label": "al-Hawra, Haura, al-Duqm? (3679)", "properties": {}, "geometry": {"type": "Point", "coordinates": [37.2559, 25.0724]}}, {"type": "Feature", "id": "http://data.archaeology.link/data/ancientports/258", "label": "Cape Espichel, with ancient lighthouse  (258)", "properties": {}, "geometry": {"type": "Point", "coordinates": [-9.2162, 38.41607]}}, {"type": "Feature", "id": "http://data.archaeology.link/data/ancientports/3580", "label": "Medinet el-Haras, 4 km south of Bender el-Kebir inside the gulf of Ras Banas and on the Tropic of Cancer. Pliny is most accurate as he indicates that there is no shadow at noon on the day of summer solstice, which is the definition of the tropic located at 23\u00b026\u2019 of latitude. The present latitude of Berenike is 23\u00b056\u2019 and it is still a port today. With Hellenistic fort and roads to Nile valley (3580)", "properties": {}, "geometry": {"type": "Point", "coordinates": [35.4726, 23.9086]}}, {"type": "Feature", "id": "http://data.archaeology.link/data/ancientports/1949", "label": "Kastro, on Chlemoutsi peninsula (1949)", "properties": {}, "geometry": {"type": "Point", "coordinates": [21.1357, 37.8865]}}, {"type": "Feature", "id": "http://data.archaeology.link/data/ancientports/1244", "label": "Rocca Vecchia (1244)", "properties": {}, "geometry": {"type": "Point", "coordinates": [18.4263, 40.2871]}}, {"type": "Feature", "id": "http://data.archaeology.link/data/ancientports/250", "label": "Lisbon, Nucleo Arqueologico, 21 rua dos Correeiros, in the basement of the Millennium Bank where a garum factory was located on the left bank of a local tributary of R  Tage flowing under the present day rua Augusta. Possible location of Avienus' Ophiusa. (250)", "properties": {}, "geometry": {"type": "Point", "coordinates": [-9.13724, 38.71006]}}, {"type": "Feature", "id": "http://data.archaeology.link/data/ancientports/3409", "label": "near Meydan? (3409)", "properties": {}, "geometry": {"type": "Point", "coordinates": [35.9974, 36.0342]}}, {"type": "Feature", "id": "http://data.archaeology.link/data/ancientports/3782", "label": "Qatar (3782)", "properties": {}, "geometry": {"type": "Point", "coordinates": [51.39676, 25.42623]}}, {"type": "Feature", "id": "http://data.archaeology.link/data/ancientports/4106", "label": "Roman villa at Aghir, on the isle of Djerba  (4106)", "properties": {}, "geometry": {"type": "Point", "coordinates": [11.04887, 33.77389]}}, {"type": "Feature", "id": "http://data.archaeology.link/data/ancientports/4193", "label": "Khechad  (4193)", "properties": {}, "geometry": {"type": "Point", "coordinates": [9.7144, 37.3365]}}, {"type": "Feature", "id": "http://data.archaeology.link/data/ancientports/985_1", "label": "Roman villa near via Lucullo & Castello Aragonese, Bacoli (985_1)", "properties": {}, "geometry": {"type": "Point", "coordinates": [14.0766, 40.8126]}}, {"type": "Feature", "id": "http://data.archaeology.link/data/ancientports/2578_6", "label": "Peschanka (2578_6)", "properties": {}, "geometry": {"type": "Point", "coordinates": [33.24, 45.157]}}, {"type": "Feature", "id": "http://data.archaeology.link/data/ancientports/2717", "label": "R Firtina near Ardesen (2717)", "properties": {}, "geometry": {"type": "Point", "coordinates": [40.9607, 41.1916]}}, {"type": "Feature", "id": "http://data.archaeology.link/data/ancientports/2442", "label": "outlet of R Kitenska-Karaagasch  (2442)", "properties": {}, "geometry": {"type": "Point", "coordinates": [27.7771, 42.22]}}, {"type": "Feature", "id": "http://data.archaeology.link/data/ancientports/1208", "label": "Isle of Basiluzzo (1208)", "properties": {}, "geometry": {"type": "Point", "coordinates": [15.117, 38.6607]}}, {"type": "Feature", "id": "http://data.archaeology.link/data/ancientports/1410", "label": "Isles of Cres and Losinj (1410)", "properties": {}, "geometry": {"type": "Point", "coordinates": [14.45, 44.58]}}, {"type": "Feature", "id": "http://data.archaeology.link/data/ancientports/2669", "label": "Khutor Blagoveshchenskiy  (2669)", "properties": {}, "geometry": {"type": "Point", "coordinates": [37.23909, 44.97027]}}, {"type": "Feature", "id": "http://data.archaeology.link/data/ancientports/648", "label": "Le Grand Parc, near Tour du Valat (648)", "properties": {}, "geometry": {"type": "Point", "coordinates": [4.6636, 43.503]}}, {"type": "Feature", "id": "http://data.archaeology.link/data/ancientports/3222", "label": "C\u00f6kertme? near G\u00f6kbel (3222)", "properties": {}, "geometry": {"type": "Point", "coordinates": [27.7923, 37.0034]}}, {"type": "Feature", "id": "http://data.archaeology.link/data/ancientports/2069_1", "label": "Grammata, at Gria Pounta, on the isle of Syros (2069_1)", "properties": {}, "geometry": {"type": "Point", "coordinates": [24.888, 37.498]}}, {"type": "Feature", "id": "http://data.archaeology.link/data/ancientports/2409", "label": "Bukoleon Sarayi, probably built by Justinian I in the 6th century, beneath the Palace of Bucoleon built by Theodosius II in the 5th century (2409)", "properties": {}, "geometry": {"type": "Point", "coordinates": [28.9763, 41.00235]}}, {"type": "Feature", "id": "http://data.archaeology.link/data/ancientports/1123", "label": "Probably Piazza del Duomo, Catania, ancient port now under lava (1123)", "properties": {}, "geometry": {"type": "Point", "coordinates": [15.0873, 37.5024]}}, {"type": "Feature", "id": "http://data.archaeology.link/data/ancientports/1423_1", "label": "Uvala Karanke, on Sestrunj island (1423_1)", "properties": {}, "geometry": {"type": "Point", "coordinates": [15.0289, 44.1434]}}, {"type": "Feature", "id": "http://data.archaeology.link/data/ancientports/2897", "label": "Isle of Avsa Adasi? With BA settlement at Manastir Mevkii H\u00f6y\u00fcg\u00fc (2897)", "properties": {}, "geometry": {"type": "Point", "coordinates": [27.4822, 40.4989]}}, {"type": "Feature", "id": "http://data.archaeology.link/data/ancientports/74_3", "label": "Roman villa at Darenth, near Dartford (74_3)", "properties": {}, "geometry": {"type": "Point", "coordinates": [0.2466, 51.4133]}}, {"type": "Feature", "id": "http://data.archaeology.link/data/ancientports/1046", "label": "Pizzo (1046)", "properties": {}, "geometry": {"type": "Point", "coordinates": [16.162, 38.74]}}, {"type": "Feature", "id": "http://data.archaeology.link/data/ancientports/1917_2", "label": "Egirousa? (1917_2)", "properties": {}, "geometry": {"type": "Point", "coordinates": [22.9929, 38.068]}}, {"type": "Feature", "id": "http://data.archaeology.link/data/ancientports/3473", "label": "at Lebanon-Israel border (3473)", "properties": {}, "geometry": {"type": "Point", "coordinates": [35.10012, 33.08214]}}, {"type": "Feature", "id": "http://data.archaeology.link/data/ancientports/4248", "label": "outlet of wadi Damous (4248)", "properties": {}, "geometry": {"type": "Point", "coordinates": [1.69361, 36.55505]}}, {"type": "Feature", "id": "http://data.archaeology.link/data/ancientports/4319", "label": "Sidi Abderahim  (4319)", "properties": {}, "geometry": {"type": "Point", "coordinates": [-6.1525, 35.2102]}}, {"type": "Feature", "id": "http://data.archaeology.link/data/ancientports/3479", "label": "Tell Afek, Afik, Khirbet Kurdaneh, Kirdani, springs of R Na'aman (3479)", "properties": {}, "geometry": {"type": "Point", "coordinates": [35.11016, 32.8445]}}, {"type": "Feature", "id": "http://data.archaeology.link/data/ancientports/405", "label": "Roman villa della Punta del Arenal, Javea (405)", "properties": {}, "geometry": {"type": "Point", "coordinates": [0.1909, 38.7738]}}, {"type": "Feature", "id": "http://data.archaeology.link/data/ancientports/4305", "label": "Kankouz, fish processing factory (4305)", "properties": {}, "geometry": {"type": "Point", "coordinates": [-5.70377, 35.83113]}}, {"type": "Feature", "id": "http://data.archaeology.link/data/ancientports/982", "label": "Punta di Pennata, pilae of the northern breakwater (982)", "properties": {}, "geometry": {"type": "Point", "coordinates": [14.08908, 40.78976]}}, {"type": "Feature", "id": "http://data.archaeology.link/data/ancientports/1750", "label": "Afyssos (1750)", "properties": {}, "geometry": {"type": "Point", "coordinates": [23.1629, 39.2728]}}, {"type": "Feature", "id": "http://data.archaeology.link/data/ancientports/4166", "label": "Bir el-Jedy (4166)", "properties": {}, "geometry": {"type": "Point", "coordinates": [10.79821, 36.93706]}}, {"type": "Feature", "id": "http://data.archaeology.link/data/ancientports/3114", "label": "Ilica K\u00f6y\u00fc? (3114)", "properties": {}, "geometry": {"type": "Point", "coordinates": [26.8886, 39.5866]}}, {"type": "Feature", "id": "http://data.archaeology.link/data/ancientports/141_2", "label": "Great Orme Bronze Age copper mine, near Neolithic settlement at Snail Cave (141_2)", "properties": {}, "geometry": {"type": "Point", "coordinates": [-3.8472, 53.3303]}}, {"type": "Feature", "id": "http://data.archaeology.link/data/ancientports/1151", "label": "near Gela (1151)", "properties": {}, "geometry": {"type": "Point", "coordinates": [14.27, 37.047]}}, {"type": "Feature", "id": "http://data.archaeology.link/data/ancientports/1525_1", "label": "Gjiri i Ragunit (1525_1)", "properties": {}, "geometry": {"type": "Point", "coordinates": [19.4064, 40.3555]}}, {"type": "Feature", "id": "http://data.archaeology.link/data/ancientports/3942", "label": "Qaryat Shakush, near Huwariya, with ancient lighthouse (3942)", "properties": {}, "geometry": {"type": "Point", "coordinates": [29.65897, 30.99724]}}, {"type": "Feature", "id": "http://data.archaeology.link/data/ancientports/1705", "label": "Amarinthos, on R Sarandapotamos (1705)", "properties": {}, "geometry": {"type": "Point", "coordinates": [23.9106, 38.3867]}}, {"type": "Feature", "id": "http://data.archaeology.link/data/ancientports/992", "label": "Porto Paone, on the isle of Nisida, which is now connected to the continent by a breakwater, at Naples (Cuisenier mentions this site with two other possible sites: Marettimo and Faraglioni, Nisida clearly providing the best shelter as described by Homer) (992)", "properties": {}, "geometry": {"type": "Point", "coordinates": [14.16112, 40.79429]}}, {"type": "Feature", "id": "http://data.archaeology.link/data/ancientports/1357", "label": "Jernej Bay, Valle San Bartolomeo (1357)", "properties": {}, "geometry": {"type": "Point", "coordinates": [13.7189, 45.59169]}}, {"type": "Feature", "id": "http://data.archaeology.link/data/ancientports/717", "label": "Monaco. Unlike other authors, Ptolemy distinguishes \u00ab Herculis portus \u00bb and \u00ab Monoeci portus \u00bb east of Nice, and puts around 35 km between both of them (717)", "properties": {}, "geometry": {"type": "Point", "coordinates": [7.43285, 43.73459]}}, {"type": "Feature", "id": "http://data.archaeology.link/data/ancientports/828", "label": "Sestri Ponente, on R Polcevera (828)", "properties": {}, "geometry": {"type": "Point", "coordinates": [8.8675, 44.39543]}}, {"type": "Feature", "id": "http://data.archaeology.link/data/ancientports/169_2", "label": "Dun Skeig oppidum (169_2)", "properties": {}, "geometry": {"type": "Point", "coordinates": [-5.5749, 55.7561]}}, {"type": "Feature", "id": "http://data.archaeology.link/data/ancientports/666", "label": "Marseille, Vieux Port, place Jules Verne & place Villeneuve-Bargemon (see also nearby Musee des docks: Dolia warehouse) (666)", "properties": {}, "geometry": {"type": "Point", "coordinates": [5.3696, 43.29685]}}, {"type": "Feature", "id": "http://data.archaeology.link/data/ancientports/2961_1", "label": "Boufos, near Sissi (2961_1)", "properties": {}, "geometry": {"type": "Point", "coordinates": [25.5286, 35.3086]}}, {"type": "Feature", "id": "http://data.archaeology.link/data/ancientports/747_1", "label": "L'Ile-Rousse, Caruchettu beach (747_1)", "properties": {}, "geometry": {"type": "Point", "coordinates": [8.941, 42.635]}}, {"type": "Feature", "id": "http://data.archaeology.link/data/ancientports/62", "label": "Holme next the Sea, with possible lighthouse at Thornham (62)", "properties": {}, "geometry": {"type": "Point", "coordinates": [0.52171, 52.97488]}}, {"type": "Feature", "id": "http://data.archaeology.link/data/ancientports/3535", "label": "Marsa Abu Makhadiq (3535)", "properties": {}, "geometry": {"type": "Point", "coordinates": [33.89331, 27.04182]}}, {"type": "Feature", "id": "http://data.archaeology.link/data/ancientports/2538", "label": "Palanka, near Roxolani, on R Dniester Liman (2538)", "properties": {}, "geometry": {"type": "Point", "coordinates": [30.43693, 46.18376]}}, {"type": "Feature", "id": "http://data.archaeology.link/data/ancientports/204", "label": "Fisterra (204)", "properties": {}, "geometry": {"type": "Point", "coordinates": [-9.25156, 42.91746]}}, {"type": "Feature", "id": "http://data.archaeology.link/data/ancientports/1336", "label": "Isle of Torcello, in the lagoon of Venice, Venezia, Venise (1336)", "properties": {}, "geometry": {"type": "Point", "coordinates": [12.4197, 45.4986]}}, {"type": "Feature", "id": "http://data.archaeology.link/data/ancientports/2340", "label": "near Lakkio, on the isle of Rhodes (2340)", "properties": {}, "geometry": {"type": "Point", "coordinates": [27.76519, 36.19182]}}, {"type": "Feature", "id": "http://data.archaeology.link/data/ancientports/2521", "label": "Isle of Bile, Zmiinyi, in front of Sulina, in the delta of R Danube (2521)", "properties": {}, "geometry": {"type": "Point", "coordinates": [30.2059, 45.2558]}}, {"type": "Feature", "id": "http://data.archaeology.link/data/ancientports/4230", "label": "Cape Matifou, Tametfoust near Bordj el-Bahri, La Perouse (4230)", "properties": {}, "geometry": {"type": "Point", "coordinates": [3.23209, 36.80461]}}, {"type": "Feature", "id": "http://data.archaeology.link/data/ancientports/1277", "label": "Piano di Carpino (1277)", "properties": {}, "geometry": {"type": "Point", "coordinates": [15.83039, 41.8821]}}, {"type": "Feature", "id": "http://data.archaeology.link/data/ancientports/1059", "label": "Punta Pezzo, near Villa San Giovanni (1059)", "properties": {}, "geometry": {"type": "Point", "coordinates": [15.6354, 38.2322]}}, {"type": "Feature", "id": "http://data.archaeology.link/data/ancientports/164_5", "label": "Stair Haven oppidum, near Luce Bay (164_5)", "properties": {}, "geometry": {"type": "Point", "coordinates": [-4.7906, 54.8429]}}, {"type": "Feature", "id": "http://data.archaeology.link/data/ancientports/2108", "label": "Isle of Ano Koufonisia (2108)", "properties": {}, "geometry": {"type": "Point", "coordinates": [25.5985, 36.9313]}}, {"type": "Feature", "id": "http://data.archaeology.link/data/ancientports/1960", "label": "Risomylos, between R Selinous and R Kerynites (1960)", "properties": {}, "geometry": {"type": "Point", "coordinates": [22.1318, 38.222]}}, {"type": "Feature", "id": "http://data.archaeology.link/data/ancientports/1702", "label": "Pasas island, in front of Aulis (1702)", "properties": {}, "geometry": {"type": "Point", "coordinates": [23.60347, 38.44504]}}, {"type": "Feature", "id": "http://data.archaeology.link/data/ancientports/3228", "label": "Isle of Sedir Adasi, Sehiroglu, inside the gulf of G\u00f6kova (3228)", "properties": {}, "geometry": {"type": "Point", "coordinates": [28.2055, 36.9937]}}, {"type": "Feature", "id": "http://data.archaeology.link/data/ancientports/445", "label": "Llafranc, Sant Sebastia de la Guarda, near Palafrugell (445)", "properties": {}, "geometry": {"type": "Point", "coordinates": [3.1956, 41.8954]}}, {"type": "Feature", "id": "http://data.archaeology.link/data/ancientports/1136", "label": "Ognina island (1136)", "properties": {}, "geometry": {"type": "Point", "coordinates": [15.2635, 36.97915]}}, {"type": "Feature", "id": "http://data.archaeology.link/data/ancientports/2403", "label": "Palace east of Atak\u00f6y Marina (2403)", "properties": {}, "geometry": {"type": "Point", "coordinates": [28.8856, 40.9767]}}, {"type": "Feature", "id": "http://data.archaeology.link/data/ancientports/1599", "label": "Paralia Tolofona  (1599)", "properties": {}, "geometry": {"type": "Point", "coordinates": [22.1976, 38.345]}}, {"type": "Feature", "id": "http://data.archaeology.link/data/ancientports/564", "label": "Neolithic settlement at Cap Sizun (564)", "properties": {}, "geometry": {"type": "Point", "coordinates": [-4.586, 48.079]}}, {"type": "Feature", "id": "http://data.archaeology.link/data/ancientports/1259", "label": "Giovinazzo (1259)", "properties": {}, "geometry": {"type": "Point", "coordinates": [16.66984, 41.19282]}}, {"type": "Feature", "id": "http://data.archaeology.link/data/ancientports/3315", "label": "Agva, Camyuva, on R Kemer Cayi (3315)", "properties": {}, "geometry": {"type": "Point", "coordinates": [30.5535, 36.551]}}, {"type": "Feature", "id": "http://data.archaeology.link/data/ancientports/33", "label": "submerged at 1.5 km NW of Colijnsplaat, votive altars to Nehalennia goddess, on R Oosterschelde, Eastern Scheldt (33)", "properties": {}, "geometry": {"type": "Point", "coordinates": [3.8238, 51.6175]}}, {"type": "Feature", "id": "http://data.archaeology.link/data/ancientports/3784", "label": "Al-Hufuf, is not a port but a major trade city, another option is Tell al-Zayer at Thaj (3784)", "properties": {}, "geometry": {"type": "Point", "coordinates": [49.588, 25.373]}}, {"type": "Feature", "id": "http://data.archaeology.link/data/ancientports/3041_1", "label": "Fig Tree bay, near Protaras, with Neolithic settlement (3041_1)", "properties": {}, "geometry": {"type": "Point", "coordinates": [34.0603, 35.0122]}}, {"type": "Feature", "id": "http://data.archaeology.link/data/ancientports/2875", "label": "Gemlik, on outlet of lake Isnik G\u00f6l\u00fc (2875)", "properties": {}, "geometry": {"type": "Point", "coordinates": [29.1564, 40.4325]}}, {"type": "Feature", "id": "http://data.archaeology.link/data/ancientports/3051", "label": "Larnaca, with slipways at Bamboula (3051)", "properties": {}, "geometry": {"type": "Point", "coordinates": [33.6329, 34.92042]}}, {"type": "Feature", "id": "http://data.archaeology.link/data/ancientports/3291", "label": "Port Longos, Kas in front of the isle of Megisti (3291)", "properties": {}, "geometry": {"type": "Point", "coordinates": [29.6349, 36.1999]}}, {"type": "Feature", "id": "http://data.archaeology.link/data/ancientports/2890_1", "label": "Mamum, near Bandirma (2890_1)", "properties": {}, "geometry": {"type": "Point", "coordinates": [27.927, 40.3613]}}, {"type": "Feature", "id": "http://data.archaeology.link/data/ancientports/3651", "label": "Near Zamzam? Jizan? (3651)", "properties": {}, "geometry": {"type": "Point", "coordinates": [42.739, 16.457]}}, {"type": "Feature", "id": "http://data.archaeology.link/data/ancientports/770", "label": "Punta di Chia, near Domus de Maria (770)", "properties": {}, "geometry": {"type": "Point", "coordinates": [8.8849, 38.8956]}}, {"type": "Feature", "id": "http://data.archaeology.link/data/ancientports/378", "label": "Torre Garcia (378)", "properties": {}, "geometry": {"type": "Point", "coordinates": [-2.2944, 36.822]}}, {"type": "Feature", "id": "http://data.archaeology.link/data/ancientports/3809_2", "label": "Sush, Suze, located between two rivers: R Karkheh and R Dez-Karun (3809_2)", "properties": {}, "geometry": {"type": "Point", "coordinates": [48.255, 32.19]}}, {"type": "Feature", "id": "http://data.archaeology.link/data/ancientports/1276", "label": "Rodi Garganico (1276)", "properties": {}, "geometry": {"type": "Point", "coordinates": [15.89178, 41.93107]}}, {"type": "Feature", "id": "http://data.archaeology.link/data/ancientports/3659_3", "label": "Khor Nahud (3659_3)", "properties": {}, "geometry": {"type": "Point", "coordinates": [41.504, 18.263]}}, {"type": "Feature", "id": "http://data.archaeology.link/data/ancientports/865", "label": "Pian d'Alma (865)", "properties": {}, "geometry": {"type": "Point", "coordinates": [10.77345, 42.84234]}}, {"type": "Feature", "id": "http://data.archaeology.link/data/ancientports/29", "label": "Naaldwijk, Zuidweg & Hoogwerf, Roman fort & naval base, near ancient outlet of R Maas, Meuse (29)", "properties": {}, "geometry": {"type": "Point", "coordinates": [4.2061, 51.9853]}}, {"type": "Feature", "id": "http://data.archaeology.link/data/ancientports/4222", "label": "Azeffoun, Port Gueydon (4222)", "properties": {}, "geometry": {"type": "Point", "coordinates": [4.417, 36.8963]}}, {"type": "Feature", "id": "http://data.archaeology.link/data/ancientports/4105", "label": "Roman villa, near Vincci Alkantara resort, on the isle of Djerba (4105)", "properties": {}, "geometry": {"type": "Point", "coordinates": [11.004, 33.753]}}, {"type": "Feature", "id": "http://data.archaeology.link/data/ancientports/2144", "label": "Monolithos, on the isle of Santorini-Thera  (2144)", "properties": {}, "geometry": {"type": "Point", "coordinates": [25.4819, 36.397]}}, {"type": "Feature", "id": "http://data.archaeology.link/data/ancientports/3703", "label": "Tayyib al-Ism  (3703)", "properties": {}, "geometry": {"type": "Point", "coordinates": [34.79545, 28.5226]}}, {"type": "Feature", "id": "http://data.archaeology.link/data/ancientports/1677", "label": "near Livanates (1677)", "properties": {}, "geometry": {"type": "Point", "coordinates": [23.06234, 38.7234]}}, {"type": "Feature", "id": "http://data.archaeology.link/data/ancientports/1581", "label": "Agios Pandeleimona, with submerged BA settlement at Limani Astakou (1581)", "properties": {}, "geometry": {"type": "Point", "coordinates": [21.1013, 38.4887]}}, {"type": "Feature", "id": "http://data.archaeology.link/data/ancientports/171_14", "label": "Cashel, Gort An Choirce, oppidum, on R Glenna (171_14)", "properties": {}, "geometry": {"type": "Point", "coordinates": [-8.1322, 55.1196]}}, {"type": "Feature", "id": "http://data.archaeology.link/data/ancientports/1978", "label": "Circular harbour basin between Desylla and Kokotou-Arion districts on Corfu, on Ormos Garitsa (1978)", "properties": {}, "geometry": {"type": "Point", "coordinates": [19.92325, 39.6089]}}, {"type": "Feature", "id": "http://data.archaeology.link/data/ancientports/3940", "label": "2 km SSE of Cape Agami, north of ancient quarries at el-Mexx, al-Max, near Dikheila (3940)", "properties": {}, "geometry": {"type": "Point", "coordinates": [29.8025, 31.1356]}}, {"type": "Feature", "id": "http://data.archaeology.link/data/ancientports/1328", "label": "Brondolo, south of Chioggia (1328)", "properties": {}, "geometry": {"type": "Point", "coordinates": [12.28343, 45.19576]}}, {"type": "Feature", "id": "http://data.archaeology.link/data/ancientports/1188_1", "label": "Tunnarium, on Isola delle Femmine (1188_1)", "properties": {}, "geometry": {"type": "Point", "coordinates": [13.23715, 38.2079]}}, {"type": "Feature", "id": "http://data.archaeology.link/data/ancientports/3633", "label": "Mayyun, on Perim island, and the second island ('Duo') may have been the Cheikh Sa\u00efd peninsula now connected to the mainland (3633)", "properties": {}, "geometry": {"type": "Point", "coordinates": [43.42024, 12.6531]}}, {"type": "Feature", "id": "http://data.archaeology.link/data/ancientports/2309", "label": "Isle of Kandelioussa (2309)", "properties": {}, "geometry": {"type": "Point", "coordinates": [26.9677, 36.50099]}}, {"type": "Feature", "id": "http://data.archaeology.link/data/ancientports/2519", "label": "Vylkove? (2519)", "properties": {}, "geometry": {"type": "Point", "coordinates": [29.596, 45.3892]}}, {"type": "Feature", "id": "http://data.archaeology.link/data/ancientports/2967", "label": "near Istro (2967)", "properties": {}, "geometry": {"type": "Point", "coordinates": [25.7312, 35.1278]}}, {"type": "Feature", "id": "http://data.archaeology.link/data/ancientports/506", "label": "Terrain Landrot, Brequerecque, Boulogne, on R Liane (506)", "properties": {}, "geometry": {"type": "Point", "coordinates": [1.6127, 50.7215]}}, {"type": "Feature", "id": "http://data.archaeology.link/data/ancientports/3655", "label": "Sajid, on Farasan Segid, Zekir island, Monfreid's Seguid (3655)", "properties": {}, "geometry": {"type": "Point", "coordinates": [41.95112, 16.83656]}}, {"type": "Feature", "id": "http://data.archaeology.link/data/ancientports/2672", "label": "Cape Malyy Utrish, Malom Utrishe, Small Utrish (2672)", "properties": {}, "geometry": {"type": "Point", "coordinates": [37.453, 44.708]}}, {"type": "Feature", "id": "http://data.archaeology.link/data/ancientports/3446", "label": "el-Heri, near Ras Chekka (3446)", "properties": {}, "geometry": {"type": "Point", "coordinates": [35.7032, 34.3064]}}, {"type": "Feature", "id": "http://data.archaeology.link/data/ancientports/1121", "label": "Roman fort at Castello di Aci (1121)", "properties": {}, "geometry": {"type": "Point", "coordinates": [15.1492, 37.5542]}}, {"type": "Feature", "id": "http://data.archaeology.link/data/ancientports/3785_4", "label": "Samahij, Samaheej, Mashmahij, Meshmahig, Bahrain (3785_4)", "properties": {}, "geometry": {"type": "Point", "coordinates": [50.63425, 26.2823]}}, {"type": "Feature", "id": "http://data.archaeology.link/data/ancientports/496_1", "label": "Punta des Jondal (496_1)", "properties": {}, "geometry": {"type": "Point", "coordinates": [1.3212, 38.8581]}}, {"type": "Feature", "id": "http://data.archaeology.link/data/ancientports/4318", "label": "Djouima  (4318)", "properties": {}, "geometry": {"type": "Point", "coordinates": [-6.136, 35.2508]}}, {"type": "Feature", "id": "http://data.archaeology.link/data/ancientports/233", "label": "Povoado da Torre (233)", "properties": {}, "geometry": {"type": "Point", "coordinates": [-8.5983, 40.69102]}}, {"type": "Feature", "id": "http://data.archaeology.link/data/ancientports/1770", "label": "Dium, Dion  (1770)", "properties": {}, "geometry": {"type": "Point", "coordinates": [22.4903, 40.177]}}, {"type": "Feature", "id": "http://data.archaeology.link/data/ancientports/3101_1", "label": "Kumtepe, Neolithic settlement, now inland (3101_1)", "properties": {}, "geometry": {"type": "Point", "coordinates": [26.1966, 39.9793]}}, {"type": "Feature", "id": "http://data.archaeology.link/data/ancientports/1652", "label": "Loutsa (1652)", "properties": {}, "geometry": {"type": "Point", "coordinates": [24.017, 37.99]}}, {"type": "Feature", "id": "http://data.archaeology.link/data/ancientports/4329", "label": "Casablanca (4329)", "properties": {}, "geometry": {"type": "Point", "coordinates": [-7.61631, 33.60309]}}, {"type": "Feature", "id": "http://data.archaeology.link/data/ancientports/139", "label": "Pen Bryn-Yr-Eglwys (139)", "properties": {}, "geometry": {"type": "Point", "coordinates": [-4.5688, 53.40165]}}, {"type": "Feature", "id": "http://data.archaeology.link/data/ancientports/109_2", "label": "Trevelgue Head oppidum, Porth island near Newquay (109_2)", "properties": {}, "geometry": {"type": "Point", "coordinates": [-5.0633, 50.4268]}}, {"type": "Feature", "id": "http://data.archaeology.link/data/ancientports/3004", "label": "Festos (near Tympaki airport), on R Geropotamos (3004)", "properties": {}, "geometry": {"type": "Point", "coordinates": [24.814, 35.0513]}}, {"type": "Feature", "id": "http://data.archaeology.link/data/ancientports/2006", "label": "Creek of Agiou Andreou, on the isle of Ithaca (2006)", "properties": {}, "geometry": {"type": "Point", "coordinates": [20.72483, 38.30365]}}, {"type": "Feature", "id": "http://data.archaeology.link/data/ancientports/71", "label": "Bradwell on Sea, south of Colchester (71)", "properties": {}, "geometry": {"type": "Point", "coordinates": [0.9402, 51.7354]}}, {"type": "Feature", "id": "http://data.archaeology.link/data/ancientports/4153", "label": "Korba, Curba, on wadi Bou il Idine (4153)", "properties": {}, "geometry": {"type": "Point", "coordinates": [10.86803, 36.56845]}}, {"type": "Feature", "id": "http://data.archaeology.link/data/ancientports/1368", "label": "Roman villa at Sveti Ivan, San Giovanni (1368)", "properties": {}, "geometry": {"type": "Point", "coordinates": [13.5342, 45.4005]}}, {"type": "Feature", "id": "http://data.archaeology.link/data/ancientports/4139", "label": "Lamta, jetty with platform perpandicular to the coast (4139)", "properties": {}, "geometry": {"type": "Point", "coordinates": [10.87235, 35.68659]}}, {"type": "Feature", "id": "http://data.archaeology.link/data/ancientports/4214", "label": "Mers el-Zitoun, at the outlet of wadi Zhour (4214)", "properties": {}, "geometry": {"type": "Point", "coordinates": [6.24961, 36.93151]}}, {"type": "Feature", "id": "http://data.archaeology.link/data/ancientports/4_6", "label": "Skaghorn Syd, submerged BA settlement (4_6)", "properties": {}, "geometry": {"type": "Point", "coordinates": [9.98367, 55.16363]}}, {"type": "Feature", "id": "http://data.archaeology.link/data/ancientports/1163", "label": "Agrigento, on R San Leone (1163)", "properties": {}, "geometry": {"type": "Point", "coordinates": [13.5843, 37.291]}}, {"type": "Feature", "id": "http://data.archaeology.link/data/ancientports/1656", "label": "Roman fort at Kynosoura  (1656)", "properties": {}, "geometry": {"type": "Point", "coordinates": [24.05413, 38.13922]}}, {"type": "Feature", "id": "http://data.archaeology.link/data/ancientports/3041", "label": "Paralimni, with Neolithic settlement (3041)", "properties": {}, "geometry": {"type": "Point", "coordinates": [34.0018, 35.0574]}}, {"type": "Feature", "id": "http://data.archaeology.link/data/ancientports/3623", "label": "Hanfileh, Anfile bay, NW of Thio, Tio (3623)", "properties": {}, "geometry": {"type": "Point", "coordinates": [40.79393, 14.76497]}}, {"type": "Feature", "id": "http://data.archaeology.link/data/ancientports/1860", "label": "Fragolimano? Frankolimano, Porto Frango, near the border between Corinth and Argolid (1860)", "properties": {}, "geometry": {"type": "Point", "coordinates": [23.115, 37.842]}}, {"type": "Feature", "id": "http://data.archaeology.link/data/ancientports/1598", "label": "Agios Spyridon, port of Kallithea  (1598)", "properties": {}, "geometry": {"type": "Point", "coordinates": [22.1438, 38.3658]}}, {"type": "Feature", "id": "http://data.archaeology.link/data/ancientports/1787", "label": "Bergia (1787)", "properties": {}, "geometry": {"type": "Point", "coordinates": [23.126, 40.289]}}, {"type": "Feature", "id": "http://data.archaeology.link/data/ancientports/3966", "label": "Marsa el-Asi, Aasi (3966)", "properties": {}, "geometry": {"type": "Point", "coordinates": [26.7837, 31.4649]}}, {"type": "Feature", "id": "http://data.archaeology.link/data/ancientports/591", "label": "Roman villa at Le Grand Essart, on R Payre, near Jard sur Mer (591)", "properties": {}, "geometry": {"type": "Point", "coordinates": [-1.57759, 46.42824]}}, {"type": "Feature", "id": "http://data.archaeology.link/data/ancientports/1899", "label": "Palaia Monembasia, not to be confused with Epidauros in Argolid (1899)", "properties": {}, "geometry": {"type": "Point", "coordinates": [23.026, 36.731]}}, {"type": "Feature", "id": "http://data.archaeology.link/data/ancientports/1965_1", "label": "Lechion, coastline with from west to east: west mole, east mole, pile of stones, west and east entrance jetties, line of caissons (1965_1)", "properties": {}, "geometry": {"type": "Point", "coordinates": [22.8878, 37.9358]}}, {"type": "Feature", "id": "http://data.archaeology.link/data/ancientports/180_2", "label": "Gajano (180_2)", "properties": {}, "geometry": {"type": "Point", "coordinates": [-3.777, 43.407]}}, {"type": "Feature", "id": "http://data.archaeology.link/data/ancientports/1274", "label": "Vieste? (1274)", "properties": {}, "geometry": {"type": "Point", "coordinates": [16.183, 41.885]}}, {"type": "Feature", "id": "http://data.archaeology.link/data/ancientports/1465", "label": "Uvala Rasotica, on the isle of Brac (1465)", "properties": {}, "geometry": {"type": "Point", "coordinates": [16.88588, 43.30775]}}, {"type": "Feature", "id": "http://data.archaeology.link/data/ancientports/2308", "label": "Stavros, on the isle of Nisyros  (2308)", "properties": {}, "geometry": {"type": "Point", "coordinates": [27.1558, 36.5738]}}, {"type": "Feature", "id": "http://data.archaeology.link/data/ancientports/2353", "label": "Kato Lefkos, on the isle of Carpathos, Karpathos, Kerpe (2353)", "properties": {}, "geometry": {"type": "Point", "coordinates": [27.0685, 35.588]}}, {"type": "Feature", "id": "http://data.archaeology.link/data/ancientports/3165", "label": "Doganbey Adasi island (3165)", "properties": {}, "geometry": {"type": "Point", "coordinates": [26.88201, 38.0219]}}, {"type": "Feature", "id": "http://data.archaeology.link/data/ancientports/3734_1", "label": "Bulhar, on R Issutuggan (3734_1)", "properties": {}, "geometry": {"type": "Point", "coordinates": [44.417, 10.392]}}, {"type": "Feature", "id": "http://data.archaeology.link/data/ancientports/4085", "label": "Tripoli (4085)", "properties": {}, "geometry": {"type": "Point", "coordinates": [13.17867, 32.90134]}}, {"type": "Feature", "id": "http://data.archaeology.link/data/ancientports/1675", "label": "Isle of Atalantonisi (1675)", "properties": {}, "geometry": {"type": "Point", "coordinates": [23.09581, 38.67373]}}, {"type": "Feature", "id": "http://data.archaeology.link/data/ancientports/1108", "label": "Torre San Giovanni  (1108)", "properties": {}, "geometry": {"type": "Point", "coordinates": [18.11445, 39.88304]}}, {"type": "Feature", "id": "http://data.archaeology.link/data/ancientports/710", "label": "Plage de La Garoupe, probable shelter (Cap d\u2019Antibes) (710)", "properties": {}, "geometry": {"type": "Point", "coordinates": [7.13633, 43.55529]}}, {"type": "Feature", "id": "http://data.archaeology.link/data/ancientports/1412", "label": "Novalja, on the isle of Pag (1412)", "properties": {}, "geometry": {"type": "Point", "coordinates": [14.8818, 44.5569]}}, {"type": "Feature", "id": "http://data.archaeology.link/data/ancientports/3461_1", "label": "Tell el-Bourak, el-Burak, near Addusiyye (3461_1)", "properties": {}, "geometry": {"type": "Point", "coordinates": [35.3225, 33.4824]}}, {"type": "Feature", "id": "http://data.archaeology.link/data/ancientports/2916_1", "label": "Kalafat, near the valleys, now silted up, of R Karamenderes and R Dumrek (2916_1)", "properties": {}, "geometry": {"type": "Point", "coordinates": [26.2314, 39.9478]}}, {"type": "Feature", "id": "http://data.archaeology.link/data/ancientports/3089", "label": "Palaikastro, near Agia Eirini, on R Eskikale Deresi (3089)", "properties": {}, "geometry": {"type": "Point", "coordinates": [32.9406, 35.3039]}}, {"type": "Feature", "id": "http://data.archaeology.link/data/ancientports/1520", "label": "near Kavajes (1520)", "properties": {}, "geometry": {"type": "Point", "coordinates": [19.509, 41.2708]}}, {"type": "Feature", "id": "http://data.archaeology.link/data/ancientports/291", "label": "Trafal, Roman amphora kiln (291)", "properties": {}, "geometry": {"type": "Point", "coordinates": [-8.07389, 37.06745]}}, {"type": "Feature", "id": "http://data.archaeology.link/data/ancientports/2132", "label": "Quarry at Rema, Theioricheio, on the isle of Milos, Melos, Degirmenlik  (2132)", "properties": {}, "geometry": {"type": "Point", "coordinates": [24.5446, 36.6995]}}, {"type": "Feature", "id": "http://data.archaeology.link/data/ancientports/3793", "label": "Burgan hill, Koweith (3793)", "properties": {}, "geometry": {"type": "Point", "coordinates": [47.967, 28.939]}}, {"type": "Feature", "id": "http://data.archaeology.link/data/ancientports/1704", "label": "Eretria, with Roman fort (1704)", "properties": {}, "geometry": {"type": "Point", "coordinates": [23.79526, 38.38535]}}, {"type": "Feature", "id": "http://data.archaeology.link/data/ancientports/909", "label": "Palo, with Roman villa (909)", "properties": {}, "geometry": {"type": "Point", "coordinates": [12.10084, 41.93296]}}, {"type": "Feature", "id": "http://data.archaeology.link/data/ancientports/2204", "label": "Trianta, on the isle of Lesbos, Lesvos (2204)", "properties": {}, "geometry": {"type": "Point", "coordinates": [26.19666, 39.22428]}}, {"type": "Feature", "id": "http://data.archaeology.link/data/ancientports/931", "label": "Tor di Nora and Ripetta, on left bank of R Tiber (931)", "properties": {}, "geometry": {"type": "Point", "coordinates": [12.46969, 41.90152]}}, {"type": "Feature", "id": "http://data.archaeology.link/data/ancientports/3412", "label": "Ras el-Bassit, Basit (3412)", "properties": {}, "geometry": {"type": "Point", "coordinates": [35.82626, 35.85282]}}, {"type": "Feature", "id": "http://data.archaeology.link/data/ancientports/287", "label": "Santa Eulalia, Roman ruins (287)", "properties": {}, "geometry": {"type": "Point", "coordinates": [-8.2157, 37.0877]}}, {"type": "Feature", "id": "http://data.archaeology.link/data/ancientports/4137", "label": "Ras Dimass, near Bekalta south of Monastir, large breakwater of the South port, with possible lighthouse (4137)", "properties": {}, "geometry": {"type": "Point", "coordinates": [11.05131, 35.6243]}}, {"type": "Feature", "id": "http://data.archaeology.link/data/ancientports/4093", "label": "Zuwarah? (4093)", "properties": {}, "geometry": {"type": "Point", "coordinates": [12.12786, 32.91934]}}, {"type": "Feature", "id": "http://data.archaeology.link/data/ancientports/1278", "label": "Roman villa Avicenna,  at Carpino, on Lago di Varano  (1278)", "properties": {}, "geometry": {"type": "Point", "coordinates": [15.8127, 41.8505]}}, {"type": "Feature", "id": "http://data.archaeology.link/data/ancientports/597", "label": "Roman villa at Plassac (597)", "properties": {}, "geometry": {"type": "Point", "coordinates": [-0.64643, 45.10204]}}, {"type": "Feature", "id": "http://data.archaeology.link/data/ancientports/2273", "label": "Kalithea, with port near Balsamo? or Agios Isidoros? on the isle of Samos  (2273)", "properties": {}, "geometry": {"type": "Point", "coordinates": [26.579, 37.732]}}, {"type": "Feature", "id": "http://data.archaeology.link/data/ancientports/158", "label": "Bowness on Solway, Roman fort at the West end of Hadrien's wall (158)", "properties": {}, "geometry": {"type": "Point", "coordinates": [-3.2157, 54.9517]}}, {"type": "Feature", "id": "http://data.archaeology.link/data/ancientports/143_3", "label": "West Kirby (143_3)", "properties": {}, "geometry": {"type": "Point", "coordinates": [-3.1845, 53.3717]}}, {"type": "Feature", "id": "http://data.archaeology.link/data/ancientports/1193", "label": "at the outlet of R Imera Septentrionale (1193)", "properties": {}, "geometry": {"type": "Point", "coordinates": [13.8215, 37.9683]}}, {"type": "Feature", "id": "http://data.archaeology.link/data/ancientports/1477", "label": "Porat bay, on the isle of Bisevo (1477)", "properties": {}, "geometry": {"type": "Point", "coordinates": [16.0042, 42.9828]}}, {"type": "Feature", "id": "http://data.archaeology.link/data/ancientports/990", "label": "Pozzuoli West (990)", "properties": {}, "geometry": {"type": "Point", "coordinates": [14.1125, 40.8294]}}, {"type": "Feature", "id": "http://data.archaeology.link/data/ancientports/4239_1", "label": "el-Baldj, Beldj (4239_1)", "properties": {}, "geometry": {"type": "Point", "coordinates": [2.3478, 36.6449]}}, {"type": "Feature", "id": "http://data.archaeology.link/data/ancientports/508", "label": "Le Portel (508)", "properties": {}, "geometry": {"type": "Point", "coordinates": [1.56458, 50.70783]}}, {"type": "Feature", "id": "http://data.archaeology.link/data/ancientports/1077", "label": "at crossing of R Tacina, at Steccato di Cutro (1077)", "properties": {}, "geometry": {"type": "Point", "coordinates": [16.89753, 38.92634]}}, {"type": "Feature", "id": "http://data.archaeology.link/data/ancientports/110", "label": "Tintagel oppidum (110)", "properties": {}, "geometry": {"type": "Point", "coordinates": [-4.762, 50.669]}}, {"type": "Feature", "id": "http://data.archaeology.link/data/ancientports/3441", "label": "al-Qalamoun (3441)", "properties": {}, "geometry": {"type": "Point", "coordinates": [35.78236, 34.39013]}}, {"type": "Feature", "id": "http://data.archaeology.link/data/ancientports/2206", "label": "Roman fort at Bigla tou Aetou, on the isle of Lesbos, Lesvos  (2206)", "properties": {}, "geometry": {"type": "Point", "coordinates": [26.12757, 39.1369]}}, {"type": "Feature", "id": "http://data.archaeology.link/data/ancientports/1720", "label": "Kria Vrisi, near Kirinthos, on R Voudoros (1720)", "properties": {}, "geometry": {"type": "Point", "coordinates": [23.4716, 38.8365]}}, {"type": "Feature", "id": "http://data.archaeology.link/data/ancientports/3846", "label": "Jiwani, inside Guttar, Gwatar bay, near outlet of R Dasht Kaur (Marcian erroneously places Carmina insula in this area) (3846)", "properties": {}, "geometry": {"type": "Point", "coordinates": [61.734, 25.054]}}, {"type": "Feature", "id": "http://data.archaeology.link/data/ancientports/1653", "label": "Askitario, near Raphina, Rafina (1653)", "properties": {}, "geometry": {"type": "Point", "coordinates": [24.01791, 38.02298]}}, {"type": "Feature", "id": "http://data.archaeology.link/data/ancientports/1986", "label": "Sputzo, Limani Ozia, on the isle of Paxos (1986)", "properties": {}, "geometry": {"type": "Point", "coordinates": [20.2016, 39.1819]}}, {"type": "Feature", "id": "http://data.archaeology.link/data/ancientports/504_6", "label": "Wacquinghem-Offrethun, on R Slack (504_6)", "properties": {}, "geometry": {"type": "Point", "coordinates": [1.669, 50.7826]}}, {"type": "Feature", "id": "http://data.archaeology.link/data/ancientports/3147_1", "label": "Buyuk Ada, in front of Karaburun (3147_1)", "properties": {}, "geometry": {"type": "Point", "coordinates": [26.5155, 38.6589]}}, {"type": "Feature", "id": "http://data.archaeology.link/data/ancientports/3865_3", "label": "Wattala, at Colombo, on R Kelani Ganga, on Sri Lanka island (3865_3)", "properties": {}, "geometry": {"type": "Point", "coordinates": [79.863, 6.976]}}, {"type": "Feature", "id": "http://data.archaeology.link/data/ancientports/1644", "label": "Silver melting kilns at Pounta Zeza (1644)", "properties": {}, "geometry": {"type": "Point", "coordinates": [24.068, 37.681]}}, {"type": "Feature", "id": "http://data.archaeology.link/data/ancientports/82_1", "label": "Rye, near Camber Castle, on R Brede (82_1)", "properties": {}, "geometry": {"type": "Point", "coordinates": [0.746, 50.946]}}, {"type": "Feature", "id": "http://data.archaeology.link/data/ancientports/1826_1", "label": "Stratoni (1826_1)", "properties": {}, "geometry": {"type": "Point", "coordinates": [23.8278, 40.5117]}}, {"type": "Feature", "id": "http://data.archaeology.link/data/ancientports/3864_6", "label": "Vizhinjam (3864_6)", "properties": {}, "geometry": {"type": "Point", "coordinates": [76.986, 8.368]}}, {"type": "Feature", "id": "http://data.archaeology.link/data/ancientports/3110_2", "label": "R Biber Deresi, near Leventkaya Burun (3110_2)", "properties": {}, "geometry": {"type": "Point", "coordinates": [26.3124, 39.4837]}}, {"type": "Feature", "id": "http://data.archaeology.link/data/ancientports/2137", "label": "Sta Glastria, on the isle of Milos, Melos, Degirmenlik  (2137)", "properties": {}, "geometry": {"type": "Point", "coordinates": [24.33614, 36.72448]}}, {"type": "Feature", "id": "http://data.archaeology.link/data/ancientports/3720", "label": "Ras Binna? now silted up (3720)", "properties": {}, "geometry": {"type": "Point", "coordinates": [51.1346, 11.1444]}}, {"type": "Feature", "id": "http://data.archaeology.link/data/ancientports/640_2", "label": "Anglas, Anglars, Roman villa? (640_2)", "properties": {}, "geometry": {"type": "Point", "coordinates": [4.2422, 43.6144]}}, {"type": "Feature", "id": "http://data.archaeology.link/data/ancientports/1183", "label": "Grotta dell'Uzzo (1183)", "properties": {}, "geometry": {"type": "Point", "coordinates": [12.79089, 38.1104]}}, {"type": "Feature", "id": "http://data.archaeology.link/data/ancientports/4327", "label": "wadi Cherrat, near Bouznika (4327)", "properties": {}, "geometry": {"type": "Point", "coordinates": [-7.13064, 33.83797]}}, {"type": "Feature", "id": "http://data.archaeology.link/data/ancientports/2518", "label": "Chilia Vecche, on Pardina/Tatanir & Matita/Merhei lakes (2518)", "properties": {}, "geometry": {"type": "Point", "coordinates": [29.2846, 45.4239]}}, {"type": "Feature", "id": "http://data.archaeology.link/data/ancientports/2364", "label": "Baklaburnu, north of Bolayir (2364)", "properties": {}, "geometry": {"type": "Point", "coordinates": [26.75355, 40.55155]}}, {"type": "Feature", "id": "http://data.archaeology.link/data/ancientports/4218_1", "label": "Roman port at Ziama, on wadi Ziama (4218_1)", "properties": {}, "geometry": {"type": "Point", "coordinates": [5.447, 36.6611]}}, {"type": "Feature", "id": "http://data.archaeology.link/data/ancientports/937", "label": "Roman villa at Centro Regina (937)", "properties": {}, "geometry": {"type": "Point", "coordinates": [12.4988, 41.5912]}}, {"type": "Feature", "id": "http://data.archaeology.link/data/ancientports/176", "label": "Berreaga, with possible beaching at Plencia (176)", "properties": {}, "geometry": {"type": "Point", "coordinates": [-2.90927, 43.41542]}}, {"type": "Feature", "id": "http://data.archaeology.link/data/ancientports/523", "label": "Oppidum at St Nicolas de la Taille, Tancarville, on R Seine (523)", "properties": {}, "geometry": {"type": "Point", "coordinates": [0.468, 49.494]}}, {"type": "Feature", "id": "http://data.archaeology.link/data/ancientports/503", "label": "Puerto de Sabina, Estanque Peix, on Formentera island (503)", "properties": {}, "geometry": {"type": "Point", "coordinates": [1.41405, 38.73042]}}, {"type": "Feature", "id": "http://data.archaeology.link/data/ancientports/4334", "label": "Sidi Abed with possible salt production (4334)", "properties": {}, "geometry": {"type": "Point", "coordinates": [-8.72279, 33.00497]}}, {"type": "Feature", "id": "http://data.archaeology.link/data/ancientports/2491", "label": "Enisala (2491)", "properties": {}, "geometry": {"type": "Point", "coordinates": [28.8351, 44.88375]}}, {"type": "Feature", "id": "http://data.archaeology.link/data/ancientports/1375_2", "label": "San Pelagio (1375_2)", "properties": {}, "geometry": {"type": "Point", "coordinates": [13.6317, 45.0958]}}, {"type": "Feature", "id": "http://data.archaeology.link/data/ancientports/3697", "label": "Sanafir, Sinafir island?  (3697)", "properties": {}, "geometry": {"type": "Point", "coordinates": [34.677, 27.934]}}, {"type": "Feature", "id": "http://data.archaeology.link/data/ancientports/105_7", "label": "Pendennis Castle, Falmouth, on Carrick Roads (105_7)", "properties": {}, "geometry": {"type": "Point", "coordinates": [-5.0471, 50.1467]}}, {"type": "Feature", "id": "http://data.archaeology.link/data/ancientports/4161", "label": "Koudiat el-Guerria, near Ras el-Ahmar (4161)", "properties": {}, "geometry": {"type": "Point", "coordinates": [10.908, 37.0463]}}, {"type": "Feature", "id": "http://data.archaeology.link/data/ancientports/2692", "label": "Roman fort at Novyj Afon, New Athos, near R Psyrta (2692)", "properties": {}, "geometry": {"type": "Point", "coordinates": [40.8083, 43.0945]}}, {"type": "Feature", "id": "http://data.archaeology.link/data/ancientports/3696", "label": "Shusha island? (3696)", "properties": {}, "geometry": {"type": "Point", "coordinates": [34.9065, 27.9325]}}, {"type": "Feature", "id": "http://data.archaeology.link/data/ancientports/619", "label": "L'Aute, Caussagues, near Sigean (619)", "properties": {}, "geometry": {"type": "Point", "coordinates": [3.00371, 43.04652]}}, {"type": "Feature", "id": "http://data.archaeology.link/data/ancientports/3129", "label": "near Denizk\u00f6y (3129)", "properties": {}, "geometry": {"type": "Point", "coordinates": [26.8506, 38.9257]}}, {"type": "Feature", "id": "http://data.archaeology.link/data/ancientports/2064_2", "label": "Coastal houses in north area, but no port, on the isle of Dhilos, Delos (2064_2)", "properties": {}, "geometry": {"type": "Point", "coordinates": [25.2648, 37.4017]}}, {"type": "Feature", "id": "http://data.archaeology.link/data/ancientports/3381_1", "label": "Aliefendioglu H\u00f6y\u00fck (3381_1)", "properties": {}, "geometry": {"type": "Point", "coordinates": [34.9136, 36.8658]}}, {"type": "Feature", "id": "http://data.archaeology.link/data/ancientports/361", "label": "Torremolinos (361)", "properties": {}, "geometry": {"type": "Point", "coordinates": [-4.4924, 36.6194]}}, {"type": "Feature", "id": "http://data.archaeology.link/data/ancientports/4141_1", "label": "Monastir, Sidi Mansour (4141_1)", "properties": {}, "geometry": {"type": "Point", "coordinates": [10.84, 35.7724]}}, {"type": "Feature", "id": "http://data.archaeology.link/data/ancientports/425", "label": "Roman villa at Cambrils (425)", "properties": {}, "geometry": {"type": "Point", "coordinates": [1.05042, 41.06584]}}, {"type": "Feature", "id": "http://data.archaeology.link/data/ancientports/968", "label": "Minturno on R Garigliano (968)", "properties": {}, "geometry": {"type": "Point", "coordinates": [13.7709, 41.241]}}, {"type": "Feature", "id": "http://data.archaeology.link/data/ancientports/4_1", "label": "Neolithic settlements at Lietzow, on R\u00fcgen island (4_1)", "properties": {}, "geometry": {"type": "Point", "coordinates": [13.508, 54.481]}}, {"type": "Feature", "id": "http://data.archaeology.link/data/ancientports/1989_2", "label": "Large breakwater between Plagia & Ligia, southern limit of a large port extending up to the Hellenistic bridge (1989_2)", "properties": {}, "geometry": {"type": "Point", "coordinates": [20.72528, 38.79403]}}, {"type": "Feature", "id": "http://data.archaeology.link/data/ancientports/1755", "label": "near Chondri Ammos beach (1755)", "properties": {}, "geometry": {"type": "Point", "coordinates": [23.222, 39.131]}}, {"type": "Feature", "id": "http://data.archaeology.link/data/ancientports/751", "label": "Anse de Columbara, Centuri (751)", "properties": {}, "geometry": {"type": "Point", "coordinates": [9.34488, 42.96668]}}, {"type": "Feature", "id": "http://data.archaeology.link/data/ancientports/3626", "label": "Mersa Dudo (3626)", "properties": {}, "geometry": {"type": "Point", "coordinates": [41.90706, 13.86493]}}, {"type": "Feature", "id": "http://data.archaeology.link/data/ancientports/3904_1", "label": "Behbeit el-Hagar (3904_1)", "properties": {}, "geometry": {"type": "Point", "coordinates": [31.2891, 31.0275]}}, {"type": "Feature", "id": "http://data.archaeology.link/data/ancientports/2927", "label": "Akra Nisi, Agios Paulos, on Rodopou peninsula (2927)", "properties": {}, "geometry": {"type": "Point", "coordinates": [23.7106, 35.599]}}, {"type": "Feature", "id": "http://data.archaeology.link/data/ancientports/3019", "label": "Pikilassos, on R Trypiti, Tripiti (3019)", "properties": {}, "geometry": {"type": "Point", "coordinates": [23.866, 35.2425]}}, {"type": "Feature", "id": "http://data.archaeology.link/data/ancientports/2520", "label": "Sulina (2520)", "properties": {}, "geometry": {"type": "Point", "coordinates": [29.6526, 45.1566]}}, {"type": "Feature", "id": "http://data.archaeology.link/data/ancientports/349", "label": "Torre de San Garc\u00eda, Algeciras (349)", "properties": {}, "geometry": {"type": "Point", "coordinates": [-5.43526, 36.10193]}}, {"type": "Feature", "id": "http://data.archaeology.link/data/ancientports/4208", "label": "el-Mersa (4208)", "properties": {}, "geometry": {"type": "Point", "coordinates": [7.25162, 37.02752]}}, {"type": "Feature", "id": "http://data.archaeology.link/data/ancientports/168_5", "label": "Dunagoil oppidum (168_5)", "properties": {}, "geometry": {"type": "Point", "coordinates": [-5.0501, 55.7339]}}, {"type": "Feature", "id": "http://data.archaeology.link/data/ancientports/1386", "label": "Buduva, Budava, Porto Bado, near Nezakcij (1386)", "properties": {}, "geometry": {"type": "Point", "coordinates": [13.983, 44.9]}}, {"type": "Feature", "id": "http://data.archaeology.link/data/ancientports/2799", "label": "Muda, formerly Mukata (2799)", "properties": {}, "geometry": {"type": "Point", "coordinates": [32.15, 41.611]}}, {"type": "Feature", "id": "http://data.archaeology.link/data/ancientports/1923", "label": "Marmari, on Cape Taenarus, Tenare, ex-Matapan (1923)", "properties": {}, "geometry": {"type": "Point", "coordinates": [22.4732, 36.42442]}}, {"type": "Feature", "id": "http://data.archaeology.link/data/ancientports/3040", "label": "islets in front of Famagousta (3040)", "properties": {}, "geometry": {"type": "Point", "coordinates": [33.9545, 35.1271]}}, {"type": "Feature", "id": "http://data.archaeology.link/data/ancientports/3863_6", "label": "Devgad Fort, at outlet of R Devgad (3863_6)", "properties": {}, "geometry": {"type": "Point", "coordinates": [73.355, 16.387]}}, {"type": "Feature", "id": "http://data.archaeology.link/data/ancientports/3173", "label": "West side of Panayirdag hill, near Selcuk, on R K\u00fcc\u00fck Menderes (3173)", "properties": {}, "geometry": {"type": "Point", "coordinates": [27.332, 37.944]}}, {"type": "Feature", "id": "http://data.archaeology.link/data/ancientports/191", "label": "Castro de Pineira (191)", "properties": {}, "geometry": {"type": "Point", "coordinates": [-7.0688, 43.5527]}}, {"type": "Feature", "id": "http://data.archaeology.link/data/ancientports/1723", "label": "Ellinika, with Neolithic settlement (1723)", "properties": {}, "geometry": {"type": "Point", "coordinates": [23.34781, 39.01784]}}, {"type": "Feature", "id": "http://data.archaeology.link/data/ancientports/1347_1", "label": "BA settlement at Casa Zucca, near San Gaetano of Caorle (1347_1)", "properties": {}, "geometry": {"type": "Point", "coordinates": [12.8872, 45.6356]}}, {"type": "Feature", "id": "http://data.archaeology.link/data/ancientports/1539", "label": "Ormiskos Valtou (1539)", "properties": {}, "geometry": {"type": "Point", "coordinates": [20.1877, 39.52]}}, {"type": "Feature", "id": "http://data.archaeology.link/data/ancientports/2406_1", "label": "south of Myrelaion church, now Mesihpasa Camii, Bodrum Mosque, at ancient outlet of R Bayrampasa (2406_1)", "properties": {}, "geometry": {"type": "Point", "coordinates": [28.9556, 41.0083]}}, {"type": "Feature", "id": "http://data.archaeology.link/data/ancientports/2652", "label": "Strelka, on R Kuban (2652)", "properties": {}, "geometry": {"type": "Point", "coordinates": [37.286, 45.2089]}}, {"type": "Feature", "id": "http://data.archaeology.link/data/ancientports/1565", "label": "Vonitsa, Bonditza (1565)", "properties": {}, "geometry": {"type": "Point", "coordinates": [20.8946, 38.9204]}}, {"type": "Feature", "id": "http://data.archaeology.link/data/ancientports/1818", "label": "near the Dochiariou monastry? (1818)", "properties": {}, "geometry": {"type": "Point", "coordinates": [24.16774, 40.26445]}}, {"type": "Feature", "id": "http://data.archaeology.link/data/ancientports/288_1", "label": "Monte da Vinha, Vinha do Casao (288_1)", "properties": {}, "geometry": {"type": "Point", "coordinates": [-8.1253, 37.0922]}}, {"type": "Feature", "id": "http://data.archaeology.link/data/ancientports/3551", "label": "Bir el-Zirayb, Sharm el Lole, Zerib Kebir (3551)", "properties": {}, "geometry": {"type": "Point", "coordinates": [34.325, 26.023]}}, {"type": "Feature", "id": "http://data.archaeology.link/data/ancientports/816", "label": "Porto Maurizio, near Imperia (816)", "properties": {}, "geometry": {"type": "Point", "coordinates": [8.0207, 43.8737]}}, {"type": "Feature", "id": "http://data.archaeology.link/data/ancientports/1028", "label": "Roman villa at Cammerelle, near Sapri (1028)", "properties": {}, "geometry": {"type": "Point", "coordinates": [15.6222, 40.07218]}}, {"type": "Feature", "id": "http://data.archaeology.link/data/ancientports/2460", "label": "Nessebar (2460)", "properties": {}, "geometry": {"type": "Point", "coordinates": [27.7402, 42.6581]}}, {"type": "Feature", "id": "http://data.archaeology.link/data/ancientports/799", "label": "Castelsardo (799)", "properties": {}, "geometry": {"type": "Point", "coordinates": [8.70608, 40.91694]}}, {"type": "Feature", "id": "http://data.archaeology.link/data/ancientports/2289", "label": "Kastelli, on the isle of Patmos  (2289)", "properties": {}, "geometry": {"type": "Point", "coordinates": [26.5352, 37.326]}}, {"type": "Feature", "id": "http://data.archaeology.link/data/ancientports/1778", "label": "Thessaloniki, Vardari fortress (1778)", "properties": {}, "geometry": {"type": "Point", "coordinates": [22.9338, 40.638]}}, {"type": "Feature", "id": "http://data.archaeology.link/data/ancientports/3512", "label": "Tell el-Moghraqa (3512)", "properties": {}, "geometry": {"type": "Point", "coordinates": [34.415, 31.4723]}}, {"type": "Feature", "id": "http://data.archaeology.link/data/ancientports/1816_1", "label": "Ammuliani (1816_1)", "properties": {}, "geometry": {"type": "Point", "coordinates": [23.921, 40.3339]}}, {"type": "Feature", "id": "http://data.archaeology.link/data/ancientports/3541", "label": "Mina Safaga (3541)", "properties": {}, "geometry": {"type": "Point", "coordinates": [33.95637, 26.74003]}}, {"type": "Feature", "id": "http://data.archaeology.link/data/ancientports/303", "label": "Roman villa at Quinta da Manta Rota, near Cacela Velha (303)", "properties": {}, "geometry": {"type": "Point", "coordinates": [-7.5166, 37.1615]}}, {"type": "Feature", "id": "http://data.archaeology.link/data/ancientports/172", "label": "Irun, Estuary of R Bidasoa, export of silver & lead (172)", "properties": {}, "geometry": {"type": "Point", "coordinates": [-1.7864, 43.3417]}}, {"type": "Feature", "id": "http://data.archaeology.link/data/ancientports/3562", "label": "Marsa Abu Dabbab (3562)", "properties": {}, "geometry": {"type": "Point", "coordinates": [34.74, 25.339]}}, {"type": "Feature", "id": "http://data.archaeology.link/data/ancientports/15", "label": "Utrecht, Hoge Woerd, on R Oude Rijn (15)", "properties": {}, "geometry": {"type": "Point", "coordinates": [5.04177, 52.08755]}}, {"type": "Feature", "id": "http://data.archaeology.link/data/ancientports/525_3", "label": "Rouen, on R Seine, Opera metro station, on R Seine (525_3)", "properties": {}, "geometry": {"type": "Point", "coordinates": [1.0892, 49.4396]}}, {"type": "Feature", "id": "http://data.archaeology.link/data/ancientports/3766", "label": "Qalhat, near wadi Hilm (3766)", "properties": {}, "geometry": {"type": "Point", "coordinates": [59.377, 22.698]}}, {"type": "Feature", "id": "http://data.archaeology.link/data/ancientports/4240", "label": "Roman villa at Thalefsa (4240)", "properties": {}, "geometry": {"type": "Point", "coordinates": [2.3187, 36.6396]}}, {"type": "Feature", "id": "http://data.archaeology.link/data/ancientports/4337", "label": "Essaouira, outlet of wadi Ksob (4337)", "properties": {}, "geometry": {"type": "Point", "coordinates": [-9.7712, 31.506]}}, {"type": "Feature", "id": "http://data.archaeology.link/data/ancientports/2721", "label": "Rize, on R Tasli (2721)", "properties": {}, "geometry": {"type": "Point", "coordinates": [40.53446, 41.03615]}}, {"type": "Feature", "id": "http://data.archaeology.link/data/ancientports/439", "label": "Torre dels Encantats (439)", "properties": {}, "geometry": {"type": "Point", "coordinates": [2.5305, 41.5717]}}, {"type": "Feature", "id": "http://data.archaeology.link/data/ancientports/3266", "label": "Sarigerme, possibly near R Dalaman Cayi (3266)", "properties": {}, "geometry": {"type": "Point", "coordinates": [28.733, 36.709]}}, {"type": "Feature", "id": "http://data.archaeology.link/data/ancientports/3833", "label": "Hormuz island (3833)", "properties": {}, "geometry": {"type": "Point", "coordinates": [56.46044, 27.06516]}}, {"type": "Feature", "id": "http://data.archaeology.link/data/ancientports/1411_3", "label": "Ilovik, on the isle of Ilovik (1411_3)", "properties": {}, "geometry": {"type": "Point", "coordinates": [14.5489, 44.4609]}}, {"type": "Feature", "id": "http://data.archaeology.link/data/ancientports/2189", "label": "Agios Georgios, on the isle of Lesbos, Lesvos  (2189)", "properties": {}, "geometry": {"type": "Point", "coordinates": [26.6113, 39.0286]}}, {"type": "Feature", "id": "http://data.archaeology.link/data/ancientports/3374", "label": "Akkale near Kumkuyu  (3374)", "properties": {}, "geometry": {"type": "Point", "coordinates": [34.2226, 36.529]}}, {"type": "Feature", "id": "http://data.archaeology.link/data/ancientports/1294", "label": "Citta San Angelo, at the outlet of R Saline (1294)", "properties": {}, "geometry": {"type": "Point", "coordinates": [14.1349, 42.5215]}}, {"type": "Feature", "id": "http://data.archaeology.link/data/ancientports/4043", "label": "Marsa Brega, with Roman villa at Gasr el-Brega (4043)", "properties": {}, "geometry": {"type": "Point", "coordinates": [19.5813, 30.4243]}}, {"type": "Feature", "id": "http://data.archaeology.link/data/ancientports/2621", "label": "Semenovka (2621)", "properties": {}, "geometry": {"type": "Point", "coordinates": [35.7607, 45.3812]}}, {"type": "Feature", "id": "http://data.archaeology.link/data/ancientports/122", "label": "Roman villa at Cold Knap, Barry  (122)", "properties": {}, "geometry": {"type": "Point", "coordinates": [-3.296, 51.3904]}}, {"type": "Feature", "id": "http://data.archaeology.link/data/ancientports/131", "label": "Birthdir Roman fort, on R Mawddach  (131)", "properties": {}, "geometry": {"type": "Point", "coordinates": [-3.82089, 52.75336]}}, {"type": "Feature", "id": "http://data.archaeology.link/data/ancientports/1821", "label": "near Megisti Lavra monastry (1821)", "properties": {}, "geometry": {"type": "Point", "coordinates": [24.391, 40.171]}}, {"type": "Feature", "id": "http://data.archaeology.link/data/ancientports/2141_2", "label": "Isle of Kardiotissa (2141_2)", "properties": {}, "geometry": {"type": "Point", "coordinates": [25.017, 36.629]}}, {"type": "Feature", "id": "http://data.archaeology.link/data/ancientports/2428", "label": "Kalender Orduevi, near Yenik\u00f6y (2428)", "properties": {}, "geometry": {"type": "Point", "coordinates": [29.064, 41.129]}}, {"type": "Feature", "id": "http://data.archaeology.link/data/ancientports/84_4", "label": "Lewes, on R Ouse (84_4)", "properties": {}, "geometry": {"type": "Point", "coordinates": [0.0162, 50.8756]}}, {"type": "Feature", "id": "http://data.archaeology.link/data/ancientports/101_1", "label": "The Cobb, at Lyme Regis, is said to be on top of a Roman structure (?) (101_1)", "properties": {}, "geometry": {"type": "Point", "coordinates": [-2.9378, 50.7198]}}, {"type": "Feature", "id": "http://data.archaeology.link/data/ancientports/3641", "label": "Tongue island, near Monfreid's Zoukour, Zuqar island (3641)", "properties": {}, "geometry": {"type": "Point", "coordinates": [42.71369, 13.88127]}}, {"type": "Feature", "id": "http://data.archaeology.link/data/ancientports/2289_2", "label": "near Patmos, on the isle of Patmos  (2289_2)", "properties": {}, "geometry": {"type": "Point", "coordinates": [26.5492, 37.3177]}}, {"type": "Feature", "id": "http://data.archaeology.link/data/ancientports/3805", "label": "Tell Telloh (3805)", "properties": {}, "geometry": {"type": "Point", "coordinates": [46.177, 31.562]}}, {"type": "Feature", "id": "http://data.archaeology.link/data/ancientports/103", "label": "Port and fortlet at Topsham on R Exe (103)", "properties": {}, "geometry": {"type": "Point", "coordinates": [-3.4663, 50.6824]}}, {"type": "Feature", "id": "http://data.archaeology.link/data/ancientports/2342", "label": "Camiros on the West coast of the isle of Rhodes (2342)", "properties": {}, "geometry": {"type": "Point", "coordinates": [27.9214, 36.3364]}}, {"type": "Feature", "id": "http://data.archaeology.link/data/ancientports/1231", "label": "Blue Lagoon, on the isle of Comino (1231)", "properties": {}, "geometry": {"type": "Point", "coordinates": [14.32357, 36.01274]}}, {"type": "Feature", "id": "http://data.archaeology.link/data/ancientports/1045", "label": "Ponte Angitola, near Francavilla Angitola (1045)", "properties": {}, "geometry": {"type": "Point", "coordinates": [16.19233, 38.77393]}}, {"type": "Feature", "id": "http://data.archaeology.link/data/ancientports/370_1", "label": "Roman kilns at La Canada de Vargas, near El Maraute, at Torrenueva (370_1)", "properties": {}, "geometry": {"type": "Point", "coordinates": [-3.4877, 36.7079]}}, {"type": "Feature", "id": "http://data.archaeology.link/data/ancientports/3688", "label": "Dhuba, Duba, Sharm Qafafah, south of Jebel as-Sar, Ash-Shar, shaped like a horse (3688)", "properties": {}, "geometry": {"type": "Point", "coordinates": [35.6942, 27.3452]}}, {"type": "Feature", "id": "http://data.archaeology.link/data/ancientports/903", "label": "Roman villa Casale Alibrandi, Torre Chiaruccia, west of Cape Linaro, at outlet of R Guardiole (903)", "properties": {}, "geometry": {"type": "Point", "coordinates": [11.8305, 42.0383]}}, {"type": "Feature", "id": "http://data.archaeology.link/data/ancientports/2508", "label": "Macin (2508)", "properties": {}, "geometry": {"type": "Point", "coordinates": [28.12789, 45.23923]}}, {"type": "Feature", "id": "http://data.archaeology.link/data/ancientports/748", "label": "St Florent, Strette (748)", "properties": {}, "geometry": {"type": "Point", "coordinates": [9.2933, 42.6752]}}, {"type": "Feature", "id": "http://data.archaeology.link/data/ancientports/2932", "label": "Temple at Lera, near Stavros (2932)", "properties": {}, "geometry": {"type": "Point", "coordinates": [24.1026, 35.5903]}}, {"type": "Feature", "id": "http://data.archaeology.link/data/ancientports/968_1", "label": "Outlet of R Garigliano (968_1)", "properties": {}, "geometry": {"type": "Point", "coordinates": [13.7645, 41.2265]}}, {"type": "Feature", "id": "http://data.archaeology.link/data/ancientports/4328", "label": "Mohammedia, with possible salt production near Plage des Sablettes (4328)", "properties": {}, "geometry": {"type": "Point", "coordinates": [-7.39773, 33.71213]}}, {"type": "Feature", "id": "http://data.archaeology.link/data/ancientports/4293", "label": "Santa Catalina, at northern tip of Monte Hacho at Ceuta  (4293)", "properties": {}, "geometry": {"type": "Point", "coordinates": [-5.28567, 35.9049]}}, {"type": "Feature", "id": "http://data.archaeology.link/data/ancientports/624", "label": "Mandirac training walls, Le Castelou, on the Etang de Bages (624)", "properties": {}, "geometry": {"type": "Point", "coordinates": [3.0185, 43.1308]}}, {"type": "Feature", "id": "http://data.archaeology.link/data/ancientports/1790", "label": "Cape Pyrgos, Pirgos Sani (1790)", "properties": {}, "geometry": {"type": "Point", "coordinates": [23.311, 40.0919]}}, {"type": "Feature", "id": "http://data.archaeology.link/data/ancientports/4276", "label": "salt production on wadi Mulucha, Moulouya, Malua, Malvana (4276)", "properties": {}, "geometry": {"type": "Point", "coordinates": [-2.3442, 35.1216]}}, {"type": "Feature", "id": "http://data.archaeology.link/data/ancientports/3301", "label": "G\u00f6k Liman? (3301)", "properties": {}, "geometry": {"type": "Point", "coordinates": [30.14, 36.277]}}, {"type": "Feature", "id": "http://data.archaeology.link/data/ancientports/106_5", "label": "Kynance Gate oppidum (106_5)", "properties": {}, "geometry": {"type": "Point", "coordinates": [-5.2273, 49.9805]}}, {"type": "Feature", "id": "http://data.archaeology.link/data/ancientports/190_7", "label": "Castro del Figo, Castreda (190_7)", "properties": {}, "geometry": {"type": "Point", "coordinates": [-6.9224, 43.57]}}, {"type": "Feature", "id": "http://data.archaeology.link/data/ancientports/2900", "label": "Sirincavus, with additional breakwater 500 m east of the port (2900)", "properties": {}, "geometry": {"type": "Point", "coordinates": [27.726, 40.3095]}}, {"type": "Feature", "id": "http://data.archaeology.link/data/ancientports/262", "label": "Cajados (262)", "properties": {}, "geometry": {"type": "Point", "coordinates": [-8.77279, 38.56137]}}, {"type": "Feature", "id": "http://data.archaeology.link/data/ancientports/806", "label": "Cala Bitta (806)", "properties": {}, "geometry": {"type": "Point", "coordinates": [9.47091, 41.12562]}}, {"type": "Feature", "id": "http://data.archaeology.link/data/ancientports/2446_2", "label": "Alepu lagoon (2446_2)", "properties": {}, "geometry": {"type": "Point", "coordinates": [27.7076, 42.3658]}}, {"type": "Feature", "id": "http://data.archaeology.link/data/ancientports/1096", "label": "on right bank of R Sinni (1096)", "properties": {}, "geometry": {"type": "Point", "coordinates": [16.65453, 40.15831]}}, {"type": "Feature", "id": "http://data.archaeology.link/data/ancientports/2988", "label": "Ierapetra (2988)", "properties": {}, "geometry": {"type": "Point", "coordinates": [25.7406, 35.00585]}}, {"type": "Feature", "id": "http://data.archaeology.link/data/ancientports/3772", "label": "Khor Kalba (3772)", "properties": {}, "geometry": {"type": "Point", "coordinates": [56.369, 25.028]}}, {"type": "Feature", "id": "http://data.archaeology.link/data/ancientports/1956", "label": "Tekes (1956)", "properties": {}, "geometry": {"type": "Point", "coordinates": [21.82, 38.3179]}}, {"type": "Feature", "id": "http://data.archaeology.link/data/ancientports/674", "label": "Port Miou, Roman quarry (674)", "properties": {}, "geometry": {"type": "Point", "coordinates": [5.5156, 43.20562]}}, {"type": "Feature", "id": "http://data.archaeology.link/data/ancientports/2760", "label": "Baruthane, near Samsun (2760)", "properties": {}, "geometry": {"type": "Point", "coordinates": [36.33963, 41.3149]}}, {"type": "Feature", "id": "http://data.archaeology.link/data/ancientports/3304", "label": "Finike, with Limira at Aktasharabeleri, at the toe of the hill, on R Karadin Cayi, R Akcay Cayi (3304)", "properties": {}, "geometry": {"type": "Point", "coordinates": [30.139, 36.2929]}}, {"type": "Feature", "id": "http://data.archaeology.link/data/ancientports/3621", "label": "Dellemi, Dilemmi island, SW of Port Smyth (3621)", "properties": {}, "geometry": {"type": "Point", "coordinates": [39.88917, 15.48559]}}, {"type": "Feature", "id": "http://data.archaeology.link/data/ancientports/4099_1", "label": "Henchir Fesguia Rouis, Fisqiyat Ruays (4099_1)", "properties": {}, "geometry": {"type": "Point", "coordinates": [11.1372, 33.3143]}}, {"type": "Feature", "id": "http://data.archaeology.link/data/ancientports/3111_1", "label": "Kadirga K\u00f6y\u00fc (3111_1)", "properties": {}, "geometry": {"type": "Point", "coordinates": [26.3697, 39.4838]}}, {"type": "Feature", "id": "http://data.archaeology.link/data/ancientports/3285_1", "label": "K\u00f6t\u00fc Burun, Yedi Burun (3285_1)", "properties": {}, "geometry": {"type": "Point", "coordinates": [29.116, 36.39]}}, {"type": "Feature", "id": "http://data.archaeology.link/data/ancientports/127", "label": "Greenala oppidum (127)", "properties": {}, "geometry": {"type": "Point", "coordinates": [-4.8813, 51.6326]}}, {"type": "Feature", "id": "http://data.archaeology.link/data/ancientports/104_1", "label": "Outlet of R Erme (104_1)", "properties": {}, "geometry": {"type": "Point", "coordinates": [-3.95796, 50.3031]}}, {"type": "Feature", "id": "http://data.archaeology.link/data/ancientports/2315", "label": "Agios Georgios Bay, on the isle of Alimnia (2315)", "properties": {}, "geometry": {"type": "Point", "coordinates": [27.7084, 36.2658]}}, {"type": "Feature", "id": "http://data.archaeology.link/data/ancientports/429", "label": "Roman villa at Els Munts, near Altafulla (429)", "properties": {}, "geometry": {"type": "Point", "coordinates": [1.3859, 41.1361]}}, {"type": "Feature", "id": "http://data.archaeology.link/data/ancientports/3469", "label": "Palestinian camp on Rachidiye's ancient Tell Habesh (3469)", "properties": {}, "geometry": {"type": "Point", "coordinates": [35.214, 33.241]}}, {"type": "Feature", "id": "http://data.archaeology.link/data/ancientports/3955", "label": "Geziret al-Khunfus, el-Homfis reefs, near Abu Haggag (3955)", "properties": {}, "geometry": {"type": "Point", "coordinates": [27.9087, 31.1379]}}, {"type": "Feature", "id": "http://data.archaeology.link/data/ancientports/3604", "label": "Port Sudan, in Marsa Sheikh Barghud, Ptolemy locates Theon Soterum at 30' of latitude north of Evangelon, which corresponds to Port Sudan, on wadi Sugudet (3604)", "properties": {}, "geometry": {"type": "Point", "coordinates": [37.22748, 19.60916]}}, {"type": "Feature", "id": "http://data.archaeology.link/data/ancientports/927", "label": "Porticus Aemilia, emporium on left bank of R Tiber at Marmorata, south of Ponte Sublico. Tucci claims it could be shipsheds (927)", "properties": {}, "geometry": {"type": "Point", "coordinates": [12.47459, 41.88244]}}, {"type": "Feature", "id": "http://data.archaeology.link/data/ancientports/3344", "label": "Yakacik, Kalediran, on R Kalodran Cayi (3344)", "properties": {}, "geometry": {"type": "Point", "coordinates": [32.5698, 36.1099]}}, {"type": "Feature", "id": "http://data.archaeology.link/data/ancientports/1761", "label": "Velika (1761)", "properties": {}, "geometry": {"type": "Point", "coordinates": [22.863, 39.756]}}, {"type": "Feature", "id": "http://data.archaeology.link/data/ancientports/1611", "label": "Chostia, near Saranti (1611)", "properties": {}, "geometry": {"type": "Point", "coordinates": [22.88313, 38.25383]}}, {"type": "Feature", "id": "http://data.archaeology.link/data/ancientports/3707_1", "label": "Tell el-Kheleifeh, Tell al-Khulayfa, with square casemate fort (3707_1)", "properties": {}, "geometry": {"type": "Point", "coordinates": [34.9803, 29.5472]}}, {"type": "Feature", "id": "http://data.archaeology.link/data/ancientports/1465_1", "label": "Bol, on the isle of Brac (1465_1)", "properties": {}, "geometry": {"type": "Point", "coordinates": [16.6655, 43.2606]}}, {"type": "Feature", "id": "http://data.archaeology.link/data/ancientports/3320", "label": "Antalya, near Genclik? (3320)", "properties": {}, "geometry": {"type": "Point", "coordinates": [30.71359, 36.87147]}}, {"type": "Feature", "id": "http://data.archaeology.link/data/ancientports/768", "label": "Capo di Pula, Cala di Nora, with Molo Schmiedt (768)", "properties": {}, "geometry": {"type": "Point", "coordinates": [9.01256, 38.98472]}}, {"type": "Feature", "id": "http://data.archaeology.link/data/ancientports/4057", "label": "Bir en-Naim? near the remains of Mintaqat wadi Harawah (4057)", "properties": {}, "geometry": {"type": "Point", "coordinates": [17.2927, 31.0889]}}, {"type": "Feature", "id": "http://data.archaeology.link/data/ancientports/3785", "label": "Qalat al-Bahrain fort (3785)", "properties": {}, "geometry": {"type": "Point", "coordinates": [50.5215, 26.2341]}}, {"type": "Feature", "id": "http://data.archaeology.link/data/ancientports/2361", "label": "near Kocacesme (2361)", "properties": {}, "geometry": {"type": "Point", "coordinates": [26.809, 40.6578]}}, {"type": "Feature", "id": "http://data.archaeology.link/data/ancientports/587", "label": "Rez\u00e9, Reze, Chapelle Saint-Lupien, near Trentemoux (587)", "properties": {}, "geometry": {"type": "Point", "coordinates": [-1.566, 47.1922]}}, {"type": "Feature", "id": "http://data.archaeology.link/data/ancientports/2319", "label": "Diodore mentions that the breakwater of the large port is located at only 150 m of the city walls. The commercial port of Emborio (or Kolona) became the port of the medieval city, still with remparts.  (2319)", "properties": {}, "geometry": {"type": "Point", "coordinates": [28.23009, 36.44496]}}, {"type": "Feature", "id": "http://data.archaeology.link/data/ancientports/1691_1", "label": "Fourni, BA settlement (1691_1)", "properties": {}, "geometry": {"type": "Point", "coordinates": [22.7932, 38.8795]}}, {"type": "Feature", "id": "http://data.archaeology.link/data/ancientports/1317", "label": "Valle Umana, Argenta (1317)", "properties": {}, "geometry": {"type": "Point", "coordinates": [12.09413, 44.56244]}}, {"type": "Feature", "id": "http://data.archaeology.link/data/ancientports/1603", "label": "Galaxidi (1603)", "properties": {}, "geometry": {"type": "Point", "coordinates": [22.3873, 38.378]}}, {"type": "Feature", "id": "http://data.archaeology.link/data/ancientports/91", "label": "Bitterne Manor House, near Southampton, on R Itchen (91)", "properties": {}, "geometry": {"type": "Point", "coordinates": [-1.38397, 50.91886]}}, {"type": "Feature", "id": "http://data.archaeology.link/data/ancientports/1154", "label": "Montelungo (1154)", "properties": {}, "geometry": {"type": "Point", "coordinates": [14.197, 37.0842]}}, {"type": "Feature", "id": "http://data.archaeology.link/data/ancientports/1408_2", "label": "Mahucina bay, near Lopar, on the isle of Rab (1408_2)", "properties": {}, "geometry": {"type": "Point", "coordinates": [14.7133, 44.8364]}}, {"type": "Feature", "id": "http://data.archaeology.link/data/ancientports/2159", "label": "Thassos, Limenas, Limenaria, on the North coast of the isle of Thasos, with its ancient lighthouse and another lighthouse at Cape Phanari (2159)", "properties": {}, "geometry": {"type": "Point", "coordinates": [24.7096, 40.7793]}}, {"type": "Feature", "id": "http://data.archaeology.link/data/ancientports/2702", "label": "Pichori near R Enguri, near Anaklia (2702)", "properties": {}, "geometry": {"type": "Point", "coordinates": [41.548, 42.3894]}}, {"type": "Feature", "id": "http://data.archaeology.link/data/ancientports/1958", "label": "Lampirion, near R Salmenitikos (1958)", "properties": {}, "geometry": {"type": "Point", "coordinates": [21.989, 38.312]}}, {"type": "Feature", "id": "http://data.archaeology.link/data/ancientports/2279", "label": "Khrysomilia, on the isle of Fournoi (2279)", "properties": {}, "geometry": {"type": "Point", "coordinates": [26.5121, 37.626]}}, {"type": "Feature", "id": "http://data.archaeology.link/data/ancientports/3581", "label": "Medinet el-Haras, 4 km south of Bender el-Kebir inside the gulf of Ras Banas and on the Tropic of Cancer. Pliny is most accurate as he indicates that there is no shadow at noon on the day of summer solstice, which is the definition of the tropic located at 23\u00b026\u2019 of latitude. The present latitude of Berenike is 23\u00b056\u2019 and it is still a port today. \r\r\nWith probable quaywall (Trench 7) and possible ancient lighthouse. Roman forts at Siket and at wadi Kalalat. (3581)", "properties": {}, "geometry": {"type": "Point", "coordinates": [35.4757, 23.9116]}}, {"type": "Feature", "id": "http://data.archaeology.link/data/ancientports/2887", "label": "Bayramdere (2887)", "properties": {}, "geometry": {"type": "Point", "coordinates": [28.3888, 40.387]}}, {"type": "Feature", "id": "http://data.archaeology.link/data/ancientports/520", "label": "Oppidum at Les Fosses de Benouville, near Etretat (520)", "properties": {}, "geometry": {"type": "Point", "coordinates": [0.21537, 49.71385]}}, {"type": "Feature", "id": "http://data.archaeology.link/data/ancientports/595_1", "label": "Vil Mortagne (595_1)", "properties": {}, "geometry": {"type": "Point", "coordinates": [-0.7958, 45.4836]}}, {"type": "Feature", "id": "http://data.archaeology.link/data/ancientports/206_2", "label": "Castro Grande de Neixon (206_2)", "properties": {}, "geometry": {"type": "Point", "coordinates": [-8.8427, 42.6638]}}, {"type": "Feature", "id": "http://data.archaeology.link/data/ancientports/84", "label": "Roman villa at Eastbourne (84)", "properties": {}, "geometry": {"type": "Point", "coordinates": [0.29311, 50.76803]}}, {"type": "Feature", "id": "http://data.archaeology.link/data/ancientports/3730", "label": "Qoori, near Qandala, Candala, on R Tokwina (3730)", "properties": {}, "geometry": {"type": "Point", "coordinates": [49.92264, 11.50391]}}, {"type": "Feature", "id": "http://data.archaeology.link/data/ancientports/1411_4", "label": "Krijal, on the isle of Premuda (1411_4)", "properties": {}, "geometry": {"type": "Point", "coordinates": [14.5938, 44.337]}}, {"type": "Feature", "id": "http://data.archaeology.link/data/ancientports/2278", "label": "Fourni Korseon, on the isle of Fournoi (2278)", "properties": {}, "geometry": {"type": "Point", "coordinates": [26.4839, 37.5789]}}, {"type": "Feature", "id": "http://data.archaeology.link/data/ancientports/374", "label": "?? at 13 km of Alboran (374)", "properties": {}, "geometry": {"type": "Point", "coordinates": [-2.90926, 35.94239]}}, {"type": "Feature", "id": "http://data.archaeology.link/data/ancientports/3258", "label": "Marmaris (3258)", "properties": {}, "geometry": {"type": "Point", "coordinates": [28.269, 36.8548]}}, {"type": "Feature", "id": "http://data.archaeology.link/data/ancientports/98_2", "label": "Roman villa at Brenscombe, on Purbeck island (98_2)", "properties": {}, "geometry": {"type": "Point", "coordinates": [-2.0312, 50.6441]}}, {"type": "Feature", "id": "http://data.archaeology.link/data/ancientports/3741", "label": "Aden (3741)", "properties": {}, "geometry": {"type": "Point", "coordinates": [45.00549, 12.8018]}}, {"type": "Feature", "id": "http://data.archaeology.link/data/ancientports/4200", "label": "Tabarka, ile de Tabarca, an island of the people of ancient Naxos in Sicily? (4200)", "properties": {}, "geometry": {"type": "Point", "coordinates": [8.75486, 36.95951]}}, {"type": "Feature", "id": "http://data.archaeology.link/data/ancientports/3865_1", "label": "Uruvelapattna, at outlet of R Kala Oya, on Sri Lanka island (3865_1)", "properties": {}, "geometry": {"type": "Point", "coordinates": [79.822, 8.297]}}, {"type": "Feature", "id": "http://data.archaeology.link/data/ancientports/2780", "label": "Caylioglu, near Cape Usta (2780)", "properties": {}, "geometry": {"type": "Point", "coordinates": [34.5012, 41.965]}}, {"type": "Feature", "id": "http://data.archaeology.link/data/ancientports/4292", "label": "Playa de la Ribera, in the South bay of Ceuta  (4292)", "properties": {}, "geometry": {"type": "Point", "coordinates": [-5.31791, 35.88337]}}, {"type": "Feature", "id": "http://data.archaeology.link/data/ancientports/1773_1", "label": "Meliki (1773_1)", "properties": {}, "geometry": {"type": "Point", "coordinates": [22.3875, 40.5207]}}, {"type": "Feature", "id": "http://data.archaeology.link/data/ancientports/1078", "label": "Le Castella  (1078)", "properties": {}, "geometry": {"type": "Point", "coordinates": [17.02369, 38.9034]}}, {"type": "Feature", "id": "http://data.archaeology.link/data/ancientports/305", "label": "Castro Marim, on R Guadiana, navigable up to at least Mertola (305)", "properties": {}, "geometry": {"type": "Point", "coordinates": [-7.4415, 37.21891]}}, {"type": "Feature", "id": "http://data.archaeology.link/data/ancientports/709", "label": "Bas-Lauvert, probable export site of garum (Antibes les Pins) (709)", "properties": {}, "geometry": {"type": "Point", "coordinates": [7.09185, 43.57114]}}, {"type": "Feature", "id": "http://data.archaeology.link/data/ancientports/1643", "label": "Passalimani (1643)", "properties": {}, "geometry": {"type": "Point", "coordinates": [24.05395, 37.6739]}}, {"type": "Feature", "id": "http://data.archaeology.link/data/ancientports/3052", "label": "Hala Sultan Tekke (3052)", "properties": {}, "geometry": {"type": "Point", "coordinates": [33.6047, 34.8874]}}, {"type": "Feature", "id": "http://data.archaeology.link/data/ancientports/4300", "label": "Ksar Seghir, Qsar Sghir, fish processing factory (4300)", "properties": {}, "geometry": {"type": "Point", "coordinates": [-5.5557, 35.8454]}}, {"type": "Feature", "id": "http://data.archaeology.link/data/ancientports/4172", "label": "Wadi Miliane? near Hammam Lif (4172)", "properties": {}, "geometry": {"type": "Point", "coordinates": [10.305, 36.767]}}, {"type": "Feature", "id": "http://data.archaeology.link/data/ancientports/3500", "label": "Tell Gerisa, Jarisha, Napoleon hill, on R Yarkon (3500)", "properties": {}, "geometry": {"type": "Point", "coordinates": [34.8075, 32.0917]}}, {"type": "Feature", "id": "http://data.archaeology.link/data/ancientports/2339", "label": "Batoklia, on the isle of Rhodes  (2339)", "properties": {}, "geometry": {"type": "Point", "coordinates": [27.72394, 36.17105]}}, {"type": "Feature", "id": "http://data.archaeology.link/data/ancientports/3339", "label": "Aydap \u0130skelesi (3339)", "properties": {}, "geometry": {"type": "Point", "coordinates": [32.2358, 36.3196]}}, {"type": "Feature", "id": "http://data.archaeology.link/data/ancientports/4341_4", "label": "Isla Gran Canaria, Tamaran (4341_4)", "properties": {}, "geometry": {"type": "Point", "coordinates": [-15.6, 27.95]}}, {"type": "Feature", "id": "http://data.archaeology.link/data/ancientports/1754_2", "label": "Agia Sofia, on the isle of Paleo Trikeri (1754_2)", "properties": {}, "geometry": {"type": "Point", "coordinates": [23.07, 39.1579]}}, {"type": "Feature", "id": "http://data.archaeology.link/data/ancientports/2369", "label": "South of Lake Suvla, Tuz G\u00f6l\u00fc in Besyol plain, west of B\u00fcy\u00fckanafarta (2369)", "properties": {}, "geometry": {"type": "Point", "coordinates": [26.2947, 40.2694]}}, {"type": "Feature", "id": "http://data.archaeology.link/data/ancientports/336", "label": "Puente Zuazo, San Fernando, with a Roman bridge (336)", "properties": {}, "geometry": {"type": "Point", "coordinates": [-6.18502, 36.46946]}}, {"type": "Feature", "id": "http://data.archaeology.link/data/ancientports/112_1", "label": "Hillsborough oppidum, near Ilfracombe (112_1)", "properties": {}, "geometry": {"type": "Point", "coordinates": [-4.103, 51.21]}}, {"type": "Feature", "id": "http://data.archaeology.link/data/ancientports/1349", "label": "Chiarisacco, near San Giorgio di Nogaro, on R Corno (1349)", "properties": {}, "geometry": {"type": "Point", "coordinates": [13.21565, 45.83349]}}, {"type": "Feature", "id": "http://data.archaeology.link/data/ancientports/3240", "label": "Arapmezari K\u00f6y\u00fc (3240)", "properties": {}, "geometry": {"type": "Point", "coordinates": [28.0838, 36.7965]}}, {"type": "Feature", "id": "http://data.archaeology.link/data/ancientports/3251", "label": "Serce Limani (3251)", "properties": {}, "geometry": {"type": "Point", "coordinates": [28.0485, 36.584]}}, {"type": "Feature", "id": "http://data.archaeology.link/data/ancientports/924", "label": "on left bank of R Tiber, at Ponte Marconi (924)", "properties": {}, "geometry": {"type": "Point", "coordinates": [12.47127, 41.85995]}}, {"type": "Feature", "id": "http://data.archaeology.link/data/ancientports/1673", "label": "Theologos, on bay of Atalanti (1673)", "properties": {}, "geometry": {"type": "Point", "coordinates": [23.1895, 38.6582]}}, {"type": "Feature", "id": "http://data.archaeology.link/data/ancientports/560_2", "label": "Le Caon, near Telgruc, large fish processing factory (560_2)", "properties": {}, "geometry": {"type": "Point", "coordinates": [-4.3724, 48.2158]}}, {"type": "Feature", "id": "http://data.archaeology.link/data/ancientports/4037", "label": "30 km NE of New Brega? (4037)", "properties": {}, "geometry": {"type": "Point", "coordinates": [19.934, 30.7035]}}, {"type": "Feature", "id": "http://data.archaeology.link/data/ancientports/2030", "label": "Slipway in the Bay of Potamos, near Kastro, on the isle of Anticythera (2030)", "properties": {}, "geometry": {"type": "Point", "coordinates": [23.29438, 35.88912]}}, {"type": "Feature", "id": "http://data.archaeology.link/data/ancientports/3416", "label": "Ras ibn Hani, South bay (3416)", "properties": {}, "geometry": {"type": "Point", "coordinates": [35.73787, 35.57797]}}, {"type": "Feature", "id": "http://data.archaeology.link/data/ancientports/3857_1", "label": "anchorage in open sea in front of the shore, possibly near Naka Kharari? (3857_1)", "properties": {}, "geometry": {"type": "Point", "coordinates": [66.7, 25.23]}}, {"type": "Feature", "id": "http://data.archaeology.link/data/ancientports/127_9", "label": "Saint David's Head oppidum, near Porthmeigan beach (127_9)", "properties": {}, "geometry": {"type": "Point", "coordinates": [-5.3114, 51.9029]}}, {"type": "Feature", "id": "http://data.archaeology.link/data/ancientports/3517", "label": "Tell Ruqeish, Tell Akluk (3517)", "properties": {}, "geometry": {"type": "Point", "coordinates": [34.32, 31.404]}}, {"type": "Feature", "id": "http://data.archaeology.link/data/ancientports/339", "label": "Cadiz, Cadix, with ancient lighthouse. Puerto interior on ancient canal of Bahia-Caleta. Initially, Gadir was an island as indicated by Strabo who speaks about \u00ab the Isle of the gaditans \u00bb (Geogr, 3, 2). Port remains were also found at c/ Sagasta 96-98. (339)", "properties": {}, "geometry": {"type": "Point", "coordinates": [-6.295, 36.53]}}, {"type": "Feature", "id": "http://data.archaeology.link/data/ancientports/163", "label": "Gatehouse of Fleet Roman fortlet (163)", "properties": {}, "geometry": {"type": "Point", "coordinates": [-4.19134, 54.8913]}}, {"type": "Feature", "id": "http://data.archaeology.link/data/ancientports/2532", "label": "Semenovka, on R Dniester Liman (2532)", "properties": {}, "geometry": {"type": "Point", "coordinates": [30.12083, 46.27891]}}, {"type": "Feature", "id": "http://data.archaeology.link/data/ancientports/1743", "label": "Aivaliotika, on R Xirias (1743)", "properties": {}, "geometry": {"type": "Point", "coordinates": [22.93, 39.35]}}, {"type": "Feature", "id": "http://data.archaeology.link/data/ancientports/2626", "label": "in Bilosarais'ka gulf (2626)", "properties": {}, "geometry": {"type": "Point", "coordinates": [37.27, 46.91]}}, {"type": "Feature", "id": "http://data.archaeology.link/data/ancientports/3381", "label": "G\u00f6zl\u00fckule, Tarsus, on R Tarsus, with Karabucak swamps south of it (3381)", "properties": {}, "geometry": {"type": "Point", "coordinates": [34.87119, 36.88895]}}, {"type": "Feature", "id": "http://data.archaeology.link/data/ancientports/4142_1", "label": "Monastir, Skanes, Henchir Tennir? (4142_1)", "properties": {}, "geometry": {"type": "Point", "coordinates": [10.783, 35.775]}}, {"type": "Feature", "id": "http://data.archaeology.link/data/ancientports/4185", "label": "Ile Cani, Dziret el-Ikleb, north of Raf Raf? These two islands are mentioned by Antonine between La Galite and Egimure (Zembra). These two small islands, located offshore Raf Raf, are the only ones to be seen during the trip from La Galite to Zembra (4185)", "properties": {}, "geometry": {"type": "Point", "coordinates": [10.12375, 37.35532]}},