{"type": "FeatureCollection", "id": "http://data.archaeology.link/data/ancientports/Harbour_collection", "name": "Harbour Instances Collection", "features": [{"type": "Feature", "id": "http://data.archaeology.link/data/ancientports/1181", "name": "Trapani (1181)", "dateprops": [], "properties": {}, "geometry": {"type": "Point", "coordinates": [12.50219, 38.00796]}}, {"type": "Feature", "id": "http://data.archaeology.link/data/ancientports/5", "name": "Isles of Helgoland? near Frisian islands in front of R Weser? (5)", "dateprops": [], "properties": {}, "geometry": {"type": "Point", "coordinates": [7.88528, 54.1825]}}, {"type": "Feature", "id": "http://data.archaeology.link/data/ancientports/1707_2", "name": "Stouronisi, Styra island (1707_2)", "dateprops": [], "properties": {}, "geometry": {"type": "Point", "coordinates": [24.162, 38.172]}}, {"type": "Feature", "id": "http://data.archaeology.link/data/ancientports/356", "name": "Basilica Vega del Mar, at San Pedro de Alcantara (356)", "dateprops": [], "properties": {}, "geometry": {"type": "Point", "coordinates": [-4.9902, 36.47205]}}, {"type": "Feature", "id": "http://data.archaeology.link/data/ancientports/2235", "name": "Panormos, on the isle of Skopelos (2235)", "dateprops": [], "properties": {}, "geometry": {"type": "Point", "coordinates": [23.6653, 39.112]}}, {"type": "Feature", "id": "http://data.archaeology.link/data/ancientports/3340", "name": "Kale Burnu, Gazipasa Limani, on R Inceagri, Sarisu (3340)", "dateprops": [], "properties": {}, "geometry": {"type": "Point", "coordinates": [32.2828, 36.2586]}}, {"type": "Feature", "id": "http://data.archaeology.link/data/ancientports/4_1", "name": "Neolithic settlements at Lietzow, on R\u00fcgen island (4_1)", "dateprops": [], "properties": {}, "geometry": {"type": "Point", "coordinates": [13.508, 54.481]}}, {"type": "Feature", "id": "http://data.archaeology.link/data/ancientports/2493", "name": "Satu Nou (2493)", "dateprops": [], "properties": {}, "geometry": {"type": "Point", "coordinates": [28.68712, 44.94811]}}, {"type": "Feature", "id": "http://data.archaeology.link/data/ancientports/2139", "name": "Quarry at Ribari, on the isle of Milos, Melos, Degirmenlik  (2139)", "dateprops": [], "properties": {}, "geometry": {"type": "Point", "coordinates": [24.4044, 36.7016]}}, {"type": "Feature", "id": "http://data.archaeology.link/data/ancientports/2808", "name": "Alacaagzi (2808)", "dateprops": [], "properties": {}, "geometry": {"type": "Point", "coordinates": [31.54251, 41.36536]}}, {"type": "Feature", "id": "http://data.archaeology.link/data/ancientports/3868_3", "name": "Isle of el-Felusiyat on Lake el-Bardawil (3868_3)", "dateprops": [], "properties": {}, "geometry": {"type": "Point", "coordinates": [33.4316, 31.1174]}}, {"type": "Feature", "id": "http://data.archaeology.link/data/ancientports/3345", "name": "Mellec near Demir\u00f6ren (3345)", "dateprops": [], "properties": {}, "geometry": {"type": "Point", "coordinates": [32.6903, 36.0563]}}, {"type": "Feature", "id": "http://data.archaeology.link/data/ancientports/3416", "name": "Ras ibn Hani, South bay (3416)", "dateprops": [], "properties": {}, "geometry": {"type": "Point", "coordinates": [35.73787, 35.57797]}}, {"type": "Feature", "id": "http://data.archaeology.link/data/ancientports/133_1", "name": "Craig y Dinas oppidum (133_1)", "dateprops": [], "properties": {}, "geometry": {"type": "Point", "coordinates": [-4.316, 53.0425]}}, {"type": "Feature", "id": "http://data.archaeology.link/data/ancientports/2453", "name": "Greek fort between the villages of Konstantinovo and Chernivrah (2453)", "dateprops": [], "properties": {}, "geometry": {"type": "Point", "coordinates": [27.367, 42.42775]}}, {"type": "Feature", "id": "http://data.archaeology.link/data/ancientports/2753", "name": "R Akcay (2753)", "dateprops": [], "properties": {}, "geometry": {"type": "Point", "coordinates": [37.17, 41.1506]}}, {"type": "Feature", "id": "http://data.archaeology.link/data/ancientports/3269", "name": "Kizilkuyruk K\u00f6y\u00fc, Aga Limani (3269)", "dateprops": [], "properties": {}, "geometry": {"type": "Point", "coordinates": [28.8692, 36.6204]}}, {"type": "Feature", "id": "http://data.archaeology.link/data/ancientports/4129_2", "name": "as Sidr (4129_2)", "dateprops": [], "properties": {}, "geometry": {"type": "Point", "coordinates": [10.904, 34.86]}}, {"type": "Feature", "id": "http://data.archaeology.link/data/ancientports/1622_1", "name": "R Reitoi, Koumoundourou lake, near Skaramagas (1622_1)", "dateprops": [], "properties": {}, "geometry": {"type": "Point", "coordinates": [23.601, 38.0235]}}, {"type": "Feature", "id": "http://data.archaeology.link/data/ancientports/4265", "name": "Isles of Habibas north of Bouzedjar (4265)", "dateprops": [], "properties": {}, "geometry": {"type": "Point", "coordinates": [-1.13152, 35.72413]}}, {"type": "Feature", "id": "http://data.archaeology.link/data/ancientports/3064", "name": "Akrotiri west bays with grey sand & dunes, port of Katalymata ton Plakoton (3064)", "dateprops": [], "properties": {}, "geometry": {"type": "Point", "coordinates": [32.935, 34.5815]}}, {"type": "Feature", "id": "http://data.archaeology.link/data/ancientports/3066", "name": "Avdimou bay (3066)", "dateprops": [], "properties": {}, "geometry": {"type": "Point", "coordinates": [32.7582, 34.6536]}}, {"type": "Feature", "id": "http://data.archaeology.link/data/ancientports/1246_3", "name": "Torre Rinalda (1246_3)", "dateprops": [], "properties": {}, "geometry": {"type": "Point", "coordinates": [18.164, 40.482]}}, {"type": "Feature", "id": "http://data.archaeology.link/data/ancientports/185", "name": "Pico Castiello, Moriyon, Villaviciosa (185)", "dateprops": [], "properties": {}, "geometry": {"type": "Point", "coordinates": [-5.38573, 43.4956]}}, {"type": "Feature", "id": "http://data.archaeology.link/data/ancientports/2811", "name": "Eregli (2811)", "dateprops": [], "properties": {}, "geometry": {"type": "Point", "coordinates": [31.413, 41.2821]}}, {"type": "Feature", "id": "http://data.archaeology.link/data/ancientports/2407", "name": "Cakmaktasi Sk, Kumkapi district (2407)", "dateprops": [], "properties": {}, "geometry": {"type": "Point", "coordinates": [28.9656, 41.0037]}}, {"type": "Feature", "id": "http://data.archaeology.link/data/ancientports/3484_1", "name": "Neve-Yam, submerged Neolithic site (3484_1)", "dateprops": [], "properties": {}, "geometry": {"type": "Point", "coordinates": [34.9277, 32.678]}}, {"type": "Feature", "id": "http://data.archaeology.link/data/ancientports/3050", "name": "Pyla, near Koutsopetria & Kokkinokremos / krenos (3050)", "dateprops": [], "properties": {}, "geometry": {"type": "Point", "coordinates": [33.7151, 34.9902]}}, {"type": "Feature", "id": "http://data.archaeology.link/data/ancientports/2360_3", "name": "G\u00f6kcetepe (2360_3)", "dateprops": [], "properties": {}, "geometry": {"type": "Point", "coordinates": [26.643, 40.6379]}}, {"type": "Feature", "id": "http://data.archaeology.link/data/ancientports/2436_3", "name": "Agacli Neolithic settlement, east of R Agacli and west of R Hakaydin (2436_3)", "dateprops": [], "properties": {}, "geometry": {"type": "Point", "coordinates": [28.893, 41.275]}}, {"type": "Feature", "id": "http://data.archaeology.link/data/ancientports/3003", "name": "Kamilari (3003)", "dateprops": [], "properties": {}, "geometry": {"type": "Point", "coordinates": [24.7869, 35.0453]}}, {"type": "Feature", "id": "http://data.archaeology.link/data/ancientports/1398", "name": "Zaton Soline, on the isle of Krk (1398)", "dateprops": [], "properties": {}, "geometry": {"type": "Point", "coordinates": [14.60858, 45.15599]}}, {"type": "Feature", "id": "http://data.archaeology.link/data/ancientports/1525_5", "name": "Gjiri i Ariut (1525_5)", "dateprops": [], "properties": {}, "geometry": {"type": "Point", "coordinates": [19.3779, 40.3151]}}, {"type": "Feature", "id": "http://data.archaeology.link/data/ancientports/3611_1", "name": "Mandalum, on wadi Asarai, mentioned by Pliny, Hist Nat, 6, 172 (3611_1)", "dateprops": [], "properties": {}, "geometry": {"type": "Point", "coordinates": [38.72, 17.734]}}, {"type": "Feature", "id": "http://data.archaeology.link/data/ancientports/3861_5", "name": "Mangrol Bara, on R Noli, acc. to Ptolemy, Monoglossum and R Mophides are close to each other, and located between Sinus Canthicolpico (Gulf of Kutch) and Sinus Barigazeno (Gulf of Khambhat, Kambay), south of Bardaxema (3861_5)", "dateprops": [], "properties": {}, "geometry": {"type": "Point", "coordinates": [70.132, 21.075]}}, {"type": "Feature", "id": "http://data.archaeology.link/data/ancientports/4307", "name": "Tangier, Tanger (4307)", "dateprops": [], "properties": {}, "geometry": {"type": "Point", "coordinates": [-5.80376, 35.78677]}}, {"type": "Feature", "id": "http://data.archaeology.link/data/ancientports/2551_1", "name": "Staraia Bogdanovka, on R Bug Liman (2551_1)", "dateprops": [], "properties": {}, "geometry": {"type": "Point", "coordinates": [31.915, 46.839]}}, {"type": "Feature", "id": "http://data.archaeology.link/data/ancientports/2781", "name": "G\u00fcll\u00fcsu Liman,  west of T\u00fcrkeli (2781)", "dateprops": [], "properties": {}, "geometry": {"type": "Point", "coordinates": [34.27944, 41.94526]}}, {"type": "Feature", "id": "http://data.archaeology.link/data/ancientports/3859_4", "name": "Tharro Hill, Kervran suggests that Bibacta insula and Cilluta insula are both located here (3859_4)", "dateprops": [], "properties": {}, "geometry": {"type": "Point", "coordinates": [67.7427, 24.7295]}}, {"type": "Feature", "id": "http://data.archaeology.link/data/ancientports/3936", "name": "Dekhela, Dikheila: Alexandria West (3936)", "dateprops": [], "properties": {}, "geometry": {"type": "Point", "coordinates": [29.8745, 31.19401]}}, {"type": "Feature", "id": "http://data.archaeology.link/data/ancientports/3384", "name": "Adana, on R Seyhan (3384)", "dateprops": [], "properties": {}, "geometry": {"type": "Point", "coordinates": [35.3348, 36.9873]}}, {"type": "Feature", "id": "http://data.archaeology.link/data/ancientports/2095_1", "name": "Submerged quarry, on Tigani islet, near the isle of Paros (2095_1)", "dateprops": [], "properties": {}, "geometry": {"type": "Point", "coordinates": [25.116, 36.9752]}}, {"type": "Feature", "id": "http://data.archaeology.link/data/ancientports/436", "name": "Burriac, Cabrera de Mar, near Mataro (436)", "dateprops": [], "properties": {}, "geometry": {"type": "Point", "coordinates": [2.4063, 41.505]}}, {"type": "Feature", "id": "http://data.archaeology.link/data/ancientports/1332", "name": "Porto Menai, south of Mira (1332)", "dateprops": [], "properties": {}, "geometry": {"type": "Point", "coordinates": [12.13381, 45.41901]}}, {"type": "Feature", "id": "http://data.archaeology.link/data/ancientports/1345", "name": "Cittanova, near Eraclea, with BA settlement (1345)", "dateprops": [], "properties": {}, "geometry": {"type": "Point", "coordinates": [12.6573, 45.6378]}}, {"type": "Feature", "id": "http://data.archaeology.link/data/ancientports/2721", "name": "Rize, on R Tasli (2721)", "dateprops": [], "properties": {}, "geometry": {"type": "Point", "coordinates": [40.53446, 41.03615]}}, {"type": "Feature", "id": "http://data.archaeology.link/data/ancientports/3551", "name": "Bir el-Zirayb, Sharm el Lole, Zerib Kebir (3551)", "dateprops": [], "properties": {}, "geometry": {"type": "Point", "coordinates": [34.325, 26.023]}}, {"type": "Feature", "id": "http://data.archaeology.link/data/ancientports/3763", "name": "Ras al-Jinz, al-Hawrah (3763)", "dateprops": [], "properties": {}, "geometry": {"type": "Point", "coordinates": [59.8315, 22.4199]}}, {"type": "Feature", "id": "http://data.archaeology.link/data/ancientports/1989_1", "name": "north of Karyotes, west of Levkas canal, on the isle of Lefkada, with ancient port possibly located in the marshes west of Forti island (1989_1)", "dateprops": [], "properties": {}, "geometry": {"type": "Point", "coordinates": [20.717, 38.81]}}, {"type": "Feature", "id": "http://data.archaeology.link/data/ancientports/3352", "name": "Soguksu near Yenikas (3352)", "dateprops": [], "properties": {}, "geometry": {"type": "Point", "coordinates": [33.2918, 36.1372]}}, {"type": "Feature", "id": "http://data.archaeology.link/data/ancientports/3871", "name": "The Nile Delta contains hundreds of archaeological sites on 'tells' and 'koms' which have been listed elsewhere (see http://deltasurvey.ees.ac.uk/dsintro.html). We mention here the most important sites which are located on the main branches of the Nile and may have offered harbour facilities accessible to sea-ships. (3871)", "dateprops": [], "properties": {}, "geometry": {"type": "Point", "coordinates": [31.07843, 31.69829]}}, {"type": "Feature", "id": "http://data.archaeology.link/data/ancientports/2064_2", "name": "Coastal houses in north area, but no port, on the isle of Dhilos, Delos (2064_2)", "dateprops": [], "properties": {}, "geometry": {"type": "Point", "coordinates": [25.2648, 37.4017]}}, {"type": "Feature", "id": "http://data.archaeology.link/data/ancientports/749", "name": "Nonza (749)", "dateprops": [], "properties": {}, "geometry": {"type": "Point", "coordinates": [9.343, 42.78628]}}, {"type": "Feature", "id": "http://data.archaeology.link/data/ancientports/3863_92", "name": "Nethrani island, Pigeon island (3863_92)", "dateprops": [], "properties": {}, "geometry": {"type": "Point", "coordinates": [74.327, 14.017]}}, {"type": "Feature", "id": "http://data.archaeology.link/data/ancientports/1312", "name": "Rubicon, near Villamarina (1312)", "dateprops": [], "properties": {}, "geometry": {"type": "Point", "coordinates": [12.44686, 44.1717]}}, {"type": "Feature", "id": "http://data.archaeology.link/data/ancientports/1462_1", "name": "Stipanska Luka, near Pucisca, on the isle of Brac (1462_1)", "dateprops": [], "properties": {}, "geometry": {"type": "Point", "coordinates": [16.7428, 43.3468]}}, {"type": "Feature", "id": "http://data.archaeology.link/data/ancientports/1739", "name": "Soros (1739)", "dateprops": [], "properties": {}, "geometry": {"type": "Point", "coordinates": [22.9303, 39.3131]}}, {"type": "Feature", "id": "http://data.archaeology.link/data/ancientports/2298_1", "name": "Kastri fort, near Emporeio, on the isle of Kalymnos  (2298_1)", "dateprops": [], "properties": {}, "geometry": {"type": "Point", "coordinates": [26.9359, 37.0499]}}, {"type": "Feature", "id": "http://data.archaeology.link/data/ancientports/289", "name": "Quarteira Submersa, at 8 to 10 m waterdepth (289)", "dateprops": [], "properties": {}, "geometry": {"type": "Point", "coordinates": [-8.1056, 37.0644]}}, {"type": "Feature", "id": "http://data.archaeology.link/data/ancientports/2320", "name": "Akantia (2320)", "dateprops": [], "properties": {}, "geometry": {"type": "Point", "coordinates": [28.2349, 36.4421]}}, {"type": "Feature", "id": "http://data.archaeology.link/data/ancientports/1408_1", "name": "Podsilo bay, near Lopar, on the isle of Rab (1408_1)", "dateprops": [], "properties": {}, "geometry": {"type": "Point", "coordinates": [14.7472, 44.8465]}}, {"type": "Feature", "id": "http://data.archaeology.link/data/ancientports/2900_1", "name": "near Bozlar (2900_1)", "dateprops": [], "properties": {}, "geometry": {"type": "Point", "coordinates": [27.392, 40.3343]}}, {"type": "Feature", "id": "http://data.archaeology.link/data/ancientports/294", "name": "Salgados, Roman kiln (294)", "dateprops": [], "properties": {}, "geometry": {"type": "Point", "coordinates": [-7.9858, 37.039]}}, {"type": "Feature", "id": "http://data.archaeology.link/data/ancientports/103_2", "name": "Milber Down oppidum, near R Teign (103_2)", "dateprops": [], "properties": {}, "geometry": {"type": "Point", "coordinates": [-3.5748, 50.518]}}, {"type": "Feature", "id": "http://data.archaeology.link/data/ancientports/1280", "name": "Masseria Amorusi (1280)", "dateprops": [], "properties": {}, "geometry": {"type": "Point", "coordinates": [15.42795, 41.84148]}}, {"type": "Feature", "id": "http://data.archaeology.link/data/ancientports/141_4", "name": "Towyn (141_4)", "dateprops": [], "properties": {}, "geometry": {"type": "Point", "coordinates": [-3.5398, 53.3017]}}, {"type": "Feature", "id": "http://data.archaeology.link/data/ancientports/1778", "name": "Thessaloniki, Vardari fortress (1778)", "dateprops": [], "properties": {}, "geometry": {"type": "Point", "coordinates": [22.9338, 40.638]}}, {"type": "Feature", "id": "http://data.archaeology.link/data/ancientports/3374", "name": "Akkale near Kumkuyu  (3374)", "dateprops": [], "properties": {}, "geometry": {"type": "Point", "coordinates": [34.2226, 36.529]}}, {"type": "Feature", "id": "http://data.archaeology.link/data/ancientports/3497_1", "name": "Tell Poleg, on R Poleg (3497_1)", "dateprops": [], "properties": {}, "geometry": {"type": "Point", "coordinates": [34.8372, 32.2668]}}, {"type": "Feature", "id": "http://data.archaeology.link/data/ancientports/2916", "name": "Hisarlik, near the valleys, now silted up, of R Karamenderes and R Dumrek (2916)", "dateprops": [], "properties": {}, "geometry": {"type": "Point", "coordinates": [26.2389, 39.9572]}}, {"type": "Feature", "id": "http://data.archaeology.link/data/ancientports/3833", "name": "Hormuz island (3833)", "dateprops": [], "properties": {}, "geometry": {"type": "Point", "coordinates": [56.46044, 27.06516]}}, {"type": "Feature", "id": "http://data.archaeology.link/data/ancientports/4045", "name": "near Qariat Bashir? (4045)", "dateprops": [], "properties": {}, "geometry": {"type": "Point", "coordinates": [19.4072, 30.3345]}}, {"type": "Feature", "id": "http://data.archaeology.link/data/ancientports/490_1", "name": "Cap de forma (490_1)", "dateprops": [], "properties": {}, "geometry": {"type": "Point", "coordinates": [4.1749, 39.8439]}}, {"type": "Feature", "id": "http://data.archaeology.link/data/ancientports/1891", "name": "Eye of Lileika, near Kiveri (1891)", "dateprops": [], "properties": {}, "geometry": {"type": "Point", "coordinates": [22.7366, 37.518]}}, {"type": "Feature", "id": "http://data.archaeology.link/data/ancientports/3202", "name": "Didyma (3202)", "dateprops": [], "properties": {}, "geometry": {"type": "Point", "coordinates": [27.28303, 37.34984]}}, {"type": "Feature", "id": "http://data.archaeology.link/data/ancientports/36", "name": "Roman fort at Maldegem-Vake (36)", "dateprops": [], "properties": {}, "geometry": {"type": "Point", "coordinates": [3.4247, 51.22298]}}, {"type": "Feature", "id": "http://data.archaeology.link/data/ancientports/1390", "name": "Plomin (1390)", "dateprops": [], "properties": {}, "geometry": {"type": "Point", "coordinates": [14.18076, 45.13165]}}, {"type": "Feature", "id": "http://data.archaeology.link/data/ancientports/2121", "name": "Plakotos, on the isle of Ios (2121)", "dateprops": [], "properties": {}, "geometry": {"type": "Point", "coordinates": [25.28948, 36.78688]}}, {"type": "Feature", "id": "http://data.archaeology.link/data/ancientports/2442", "name": "outlet of R Kitenska-Karaagasch  (2442)", "dateprops": [], "properties": {}, "geometry": {"type": "Point", "coordinates": [27.7771, 42.22]}}, {"type": "Feature", "id": "http://data.archaeology.link/data/ancientports/3616", "name": "Probably somewhere in East Africa, possibly in the area of the Afar people, between Adulis and Djibouti, on the location of the ancient D'mt (Da'amat) kingdom and close to the Kush kingdom and its gold mines, where they could also find silver, ivory, apes, and peacocks. Other possible locations for Punt are Mundus-Mosylium and Opone (Somalia) (3616)", "dateprops": [], "properties": {}, "geometry": {"type": "Point", "coordinates": [39.25, 15.35]}}, {"type": "Feature", "id": "http://data.archaeology.link/data/ancientports/2091", "name": "Roman fort on Evriokastro islet, on the isle of Paros, Bara  (2091)", "dateprops": [], "properties": {}, "geometry": {"type": "Point", "coordinates": [25.2977, 37.1525]}}, {"type": "Feature", "id": "http://data.archaeology.link/data/ancientports/1935_1", "name": "Skhiza, on isle of Schiza (1935_1)", "dateprops": [], "properties": {}, "geometry": {"type": "Point", "coordinates": [21.765, 36.7169]}}, {"type": "Feature", "id": "http://data.archaeology.link/data/ancientports/286", "name": "Armacao de Pera, Roman fish processing factory (286)", "dateprops": [], "properties": {}, "geometry": {"type": "Point", "coordinates": [-8.357, 37.1]}}, {"type": "Feature", "id": "http://data.archaeology.link/data/ancientports/1118", "name": "Giardini-Naxos, near R Alcantara (1118)", "dateprops": [], "properties": {}, "geometry": {"type": "Point", "coordinates": [15.2694, 37.8193]}}, {"type": "Feature", "id": "http://data.archaeology.link/data/ancientports/974", "name": "Lago di Patria (974)", "dateprops": [], "properties": {}, "geometry": {"type": "Point", "coordinates": [14.0299, 40.92133]}}, {"type": "Feature", "id": "http://data.archaeology.link/data/ancientports/1447", "name": "Kremik Marina (1447)", "dateprops": [], "properties": {}, "geometry": {"type": "Point", "coordinates": [15.94094, 43.56987]}}, {"type": "Feature", "id": "http://data.archaeology.link/data/ancientports/2800", "name": "R Filyos near Sazk\u00f6y (2800)", "dateprops": [], "properties": {}, "geometry": {"type": "Point", "coordinates": [32.04543, 41.58355]}}, {"type": "Feature", "id": "http://data.archaeology.link/data/ancientports/2698", "name": "R Kodori, possible ancient southern branch of a delta (2698)", "dateprops": [], "properties": {}, "geometry": {"type": "Point", "coordinates": [41.12151, 42.81215]}}, {"type": "Feature", "id": "http://data.archaeology.link/data/ancientports/2284", "name": "near Agios Kirykos, on the isle of Ikaria (2284)", "dateprops": [], "properties": {}, "geometry": {"type": "Point", "coordinates": [26.3, 37.62]}}, {"type": "Feature", "id": "http://data.archaeology.link/data/ancientports/1144", "name": "Isola delle Correnti (1144)", "dateprops": [], "properties": {}, "geometry": {"type": "Point", "coordinates": [15.0783, 36.648]}}, {"type": "Feature", "id": "http://data.archaeology.link/data/ancientports/3216", "name": "Akce K\u00f6y (3216)", "dateprops": [], "properties": {}, "geometry": {"type": "Point", "coordinates": [27.2735, 37.0086]}}, {"type": "Feature", "id": "http://data.archaeology.link/data/ancientports/3346", "name": "Anamur (3346)", "dateprops": [], "properties": {}, "geometry": {"type": "Point", "coordinates": [32.8029, 36.0223]}}, {"type": "Feature", "id": "http://data.archaeology.link/data/ancientports/380", "name": "near Aguilas (380)", "dateprops": [], "properties": {}, "geometry": {"type": "Point", "coordinates": [-1.56954, 37.39745]}}, {"type": "Feature", "id": "http://data.archaeology.link/data/ancientports/2395", "name": "Silivri (2395)", "dateprops": [], "properties": {}, "geometry": {"type": "Point", "coordinates": [28.245, 41.073]}}, {"type": "Feature", "id": "http://data.archaeology.link/data/ancientports/3864_5", "name": "Varkala (3864_5)", "dateprops": [], "properties": {}, "geometry": {"type": "Point", "coordinates": [76.698, 8.738]}}, {"type": "Feature", "id": "http://data.archaeology.link/data/ancientports/2914", "name": "Tavolia, near Cobantepe (2914)", "dateprops": [], "properties": {}, "geometry": {"type": "Point", "coordinates": [26.2806, 40.0]}}, {"type": "Feature", "id": "http://data.archaeology.link/data/ancientports/3311", "name": "Adrasan bay, Cavus K\u00f6y\u00fc (3311)", "dateprops": [], "properties": {}, "geometry": {"type": "Point", "coordinates": [30.472, 36.3]}}, {"type": "Feature", "id": "http://data.archaeology.link/data/ancientports/1445", "name": "Jadrtovac (1445)", "dateprops": [], "properties": {}, "geometry": {"type": "Point", "coordinates": [15.94572, 43.67594]}}, {"type": "Feature", "id": "http://data.archaeology.link/data/ancientports/2653", "name": "Golubitskoye Gorodishche, on R Kuban (2653)", "dateprops": [], "properties": {}, "geometry": {"type": "Point", "coordinates": [37.2783, 45.33421]}}, {"type": "Feature", "id": "http://data.archaeology.link/data/ancientports/3846", "name": "Jiwani, inside Guttar, Gwatar bay, near outlet of R Dasht Kaur (Marcian erroneously places Carmina insula in this area) (3846)", "dateprops": [], "properties": {}, "geometry": {"type": "Point", "coordinates": [61.734, 25.054]}}, {"type": "Feature", "id": "http://data.archaeology.link/data/ancientports/2974", "name": "Liopetro (2974)", "dateprops": [], "properties": {}, "geometry": {"type": "Point", "coordinates": [26.015, 35.213]}}, {"type": "Feature", "id": "http://data.archaeology.link/data/ancientports/3773", "name": "Khor Fakkan, Chorfakan (3773)", "dateprops": [], "properties": {}, "geometry": {"type": "Point", "coordinates": [56.3686, 25.3482]}}, {"type": "Feature", "id": "http://data.archaeology.link/data/ancientports/1918_1", "name": "Fort at Kastro Hill, near Kotronas (1918_1)", "dateprops": [], "properties": {}, "geometry": {"type": "Point", "coordinates": [22.5098, 36.6088]}}, {"type": "Feature", "id": "http://data.archaeology.link/data/ancientports/1546", "name": "Riza (1546)", "dateprops": [], "properties": {}, "geometry": {"type": "Point", "coordinates": [20.6084, 39.119]}}, {"type": "Feature", "id": "http://data.archaeology.link/data/ancientports/171_20", "name": "Knockagh, oppidum, and two other forts, on R Castletown (171_20)", "dateprops": [], "properties": {}, "geometry": {"type": "Point", "coordinates": [-6.4831, 54.0356]}}, {"type": "Feature", "id": "http://data.archaeology.link/data/ancientports/1640", "name": "Roman fort near Charakas (1640)", "dateprops": [], "properties": {}, "geometry": {"type": "Point", "coordinates": [23.96876, 37.66308]}}, {"type": "Feature", "id": "http://data.archaeology.link/data/ancientports/1696", "name": "north of Rovies (1696)", "dateprops": [], "properties": {}, "geometry": {"type": "Point", "coordinates": [23.212, 38.8194]}}, {"type": "Feature", "id": "http://data.archaeology.link/data/ancientports/1883_2", "name": "Isle of Psili (1883_2)", "dateprops": [], "properties": {}, "geometry": {"type": "Point", "coordinates": [22.9944, 37.4374]}}, {"type": "Feature", "id": "http://data.archaeology.link/data/ancientports/395", "name": "Nueva Tabarca island (395)", "dateprops": [], "properties": {}, "geometry": {"type": "Point", "coordinates": [-0.47907, 38.16679]}}, {"type": "Feature", "id": "http://data.archaeology.link/data/ancientports/1290_1", "name": "Masseria Mayer, at outlet of R Sangro (1290_1)", "dateprops": [], "properties": {}, "geometry": {"type": "Point", "coordinates": [14.5446, 42.23875]}}, {"type": "Feature", "id": "http://data.archaeology.link/data/ancientports/718", "name": "Roquebrune Cap Martin (718)", "dateprops": [], "properties": {}, "geometry": {"type": "Point", "coordinates": [7.47355, 43.75837]}}, {"type": "Feature", "id": "http://data.archaeology.link/data/ancientports/4014", "name": "Daryanah, Driana (4014)", "dateprops": [], "properties": {}, "geometry": {"type": "Point", "coordinates": [20.3066, 32.3504]}}, {"type": "Feature", "id": "http://data.archaeology.link/data/ancientports/1573", "name": "Vathi Vali (1573)", "dateprops": [], "properties": {}, "geometry": {"type": "Point", "coordinates": [20.78058, 38.75836]}}, {"type": "Feature", "id": "http://data.archaeology.link/data/ancientports/370", "name": "Salobrena (370)", "dateprops": [], "properties": {}, "geometry": {"type": "Point", "coordinates": [-3.5901, 36.7417]}}, {"type": "Feature", "id": "http://data.archaeology.link/data/ancientports/2132", "name": "Quarry at Rema, Theioricheio, on the isle of Milos, Melos, Degirmenlik  (2132)", "dateprops": [], "properties": {}, "geometry": {"type": "Point", "coordinates": [24.5446, 36.6995]}}, {"type": "Feature", "id": "http://data.archaeology.link/data/ancientports/3711_1", "name": "Bwejuu island, Boydu Island, in front of Ras Kisimani on Mafia island (3711_1)", "dateprops": [], "properties": {}, "geometry": {"type": "Point", "coordinates": [39.5139, -7.9407]}}, {"type": "Feature", "id": "http://data.archaeology.link/data/ancientports/1440", "name": "Stipanac, near R Guduca (1440)", "dateprops": [], "properties": {}, "geometry": {"type": "Point", "coordinates": [15.84667, 43.82395]}}, {"type": "Feature", "id": "http://data.archaeology.link/data/ancientports/1772", "name": "Nea Agathoupoli, on R Aliakmonas (1772)", "dateprops": [], "properties": {}, "geometry": {"type": "Point", "coordinates": [22.5836, 40.46745]}}, {"type": "Feature", "id": "http://data.archaeology.link/data/ancientports/222", "name": "Tui, possible export of gold from Las Medullas, via R Sil and R Mino passing at Ourense (ancient Auria, Aurium, Auriense) (222)", "dateprops": [], "properties": {}, "geometry": {"type": "Point", "coordinates": [-8.641, 42.0448]}}, {"type": "Feature", "id": "http://data.archaeology.link/data/ancientports/1243_1", "name": "Torre San Stefano (1243_1)", "dateprops": [], "properties": {}, "geometry": {"type": "Point", "coordinates": [18.4732, 40.1841]}}, {"type": "Feature", "id": "http://data.archaeology.link/data/ancientports/2983", "name": "Ambelos, Xirokambos, near Choiromandres, Hoiromandres archaeological site (2983)", "dateprops": [], "properties": {}, "geometry": {"type": "Point", "coordinates": [26.2317, 35.0401]}}, {"type": "Feature", "id": "http://data.archaeology.link/data/ancientports/3785_4", "name": "Samahij, Samaheej, Mashmahij, Meshmahig, Bahrain (3785_4)", "dateprops": [], "properties": {}, "geometry": {"type": "Point", "coordinates": [50.63425, 26.2823]}}, {"type": "Feature", "id": "http://data.archaeology.link/data/ancientports/129_1", "name": "Pen Dinas, Dinas Maelor oppidum, Ceredigion, on R Ystwyth (129_1)", "dateprops": [], "properties": {}, "geometry": {"type": "Point", "coordinates": [-4.082, 52.4018]}}, {"type": "Feature", "id": "http://data.archaeology.link/data/ancientports/1605", "name": "Magoula Xeropigadas, near Chrisso, on R Pleistos (1605)", "dateprops": [], "properties": {}, "geometry": {"type": "Point", "coordinates": [22.4505, 38.4325]}}, {"type": "Feature", "id": "http://data.archaeology.link/data/ancientports/3039", "name": "archaic Kalopsidha, now inland (3039)", "dateprops": [], "properties": {}, "geometry": {"type": "Point", "coordinates": [33.7728, 35.1023]}}, {"type": "Feature", "id": "http://data.archaeology.link/data/ancientports/3235_1", "name": "Palamutb\u00fck\u00fc (3235_1)", "dateprops": [], "properties": {}, "geometry": {"type": "Point", "coordinates": [27.493, 36.6848]}}, {"type": "Feature", "id": "http://data.archaeology.link/data/ancientports/3563", "name": "Marsa Dabr (3563)", "dateprops": [], "properties": {}, "geometry": {"type": "Point", "coordinates": [34.7478, 25.322]}}, {"type": "Feature", "id": "http://data.archaeology.link/data/ancientports/1045", "name": "Ponte Angitola, near Francavilla Angitola (1045)", "dateprops": [], "properties": {}, "geometry": {"type": "Point", "coordinates": [16.19233, 38.77393]}}, {"type": "Feature", "id": "http://data.archaeology.link/data/ancientports/1586", "name": "Agias Ilias (1586)", "dateprops": [], "properties": {}, "geometry": {"type": "Point", "coordinates": [21.289, 38.483]}}, {"type": "Feature", "id": "http://data.archaeology.link/data/ancientports/2815", "name": "near Kocaman (2815)", "dateprops": [], "properties": {}, "geometry": {"type": "Point", "coordinates": [31.30035, 41.11922]}}, {"type": "Feature", "id": "http://data.archaeology.link/data/ancientports/4071", "name": "about 10 km west of Misrata (4071)", "dateprops": [], "properties": {}, "geometry": {"type": "Point", "coordinates": [14.96283, 32.42307]}}, {"type": "Feature", "id": "http://data.archaeology.link/data/ancientports/4289", "name": "Sania y Torres, quarry and fish processing factory (4289)", "dateprops": [], "properties": {}, "geometry": {"type": "Point", "coordinates": [-5.3388, 35.72921]}}, {"type": "Feature", "id": "http://data.archaeology.link/data/ancientports/3020", "name": "Suia, shingle beach of Sougia, at outlet of R Tsikalaria (3020)", "dateprops": [], "properties": {}, "geometry": {"type": "Point", "coordinates": [23.8139, 35.252]}}, {"type": "Feature", "id": "http://data.archaeology.link/data/ancientports/3474", "name": "Achziv, Akzib (3474)", "dateprops": [], "properties": {}, "geometry": {"type": "Point", "coordinates": [35.1019, 33.0486]}}, {"type": "Feature", "id": "http://data.archaeology.link/data/ancientports/1934", "name": "Koroni (1934)", "dateprops": [], "properties": {}, "geometry": {"type": "Point", "coordinates": [21.958, 36.7969]}}, {"type": "Feature", "id": "http://data.archaeology.link/data/ancientports/3876", "name": "Tell el-Borg, el-Burdj (3876)", "dateprops": [], "properties": {}, "geometry": {"type": "Point", "coordinates": [32.413, 30.924]}}, {"type": "Feature", "id": "http://data.archaeology.link/data/ancientports/2456", "name": "Burgas, Izgrev (2456)", "dateprops": [], "properties": {}, "geometry": {"type": "Point", "coordinates": [27.4784, 42.5111]}}, {"type": "Feature", "id": "http://data.archaeology.link/data/ancientports/3225", "name": "Akyaka, inside the gulf of G\u00f6kova (3225)", "dateprops": [], "properties": {}, "geometry": {"type": "Point", "coordinates": [28.32042, 37.0455]}}, {"type": "Feature", "id": "http://data.archaeology.link/data/ancientports/1829_1", "name": "Fortlet at Tripimeni Petra, near Vrasna (1829_1)", "dateprops": [], "properties": {}, "geometry": {"type": "Point", "coordinates": [23.689, 40.7051]}}, {"type": "Feature", "id": "http://data.archaeology.link/data/ancientports/3964", "name": "major Ramses II fortress, at Zawiyet Umm el-Rakham (3964)", "dateprops": [], "properties": {}, "geometry": {"type": "Point", "coordinates": [27.026, 31.4]}}, {"type": "Feature", "id": "http://data.archaeology.link/data/ancientports/753_1", "name": "Olbia, near Molo Vecchio and Molo Brin (753_1)", "dateprops": [], "properties": {}, "geometry": {"type": "Point", "coordinates": [9.5057, 40.9232]}}, {"type": "Feature", "id": "http://data.archaeology.link/data/ancientports/3958", "name": "Marsa Bagush, Baqqush, near Disney Beach (3958)", "dateprops": [], "properties": {}, "geometry": {"type": "Point", "coordinates": [27.6606, 31.1792]}}, {"type": "Feature", "id": "http://data.archaeology.link/data/ancientports/1845_1", "name": "near Lake Vistonis (1845_1)", "dateprops": [], "properties": {}, "geometry": {"type": "Point", "coordinates": [25.162, 41.022]}}, {"type": "Feature", "id": "http://data.archaeology.link/data/ancientports/659", "name": "Tholon, near Martigues (659)", "dateprops": [], "properties": {}, "geometry": {"type": "Point", "coordinates": [5.06063, 43.42048]}}, {"type": "Feature", "id": "http://data.archaeology.link/data/ancientports/1029", "name": "Capo La Timpa, near Maratea (1029)", "dateprops": [], "properties": {}, "geometry": {"type": "Point", "coordinates": [15.7001, 39.9922]}}, {"type": "Feature", "id": "http://data.archaeology.link/data/ancientports/836", "name": "Sestri Levante (836)", "dateprops": [], "properties": {}, "geometry": {"type": "Point", "coordinates": [9.38929, 44.27301]}}, {"type": "Feature", "id": "http://data.archaeology.link/data/ancientports/3548", "name": "Abu Sawatir Rocky Valley (3548)", "dateprops": [], "properties": {}, "geometry": {"type": "Point", "coordinates": [34.2201, 26.2055]}}, {"type": "Feature", "id": "http://data.archaeology.link/data/ancientports/3341", "name": "Kilisebeleni, east of Selinti Burnu (3341)", "dateprops": [], "properties": {}, "geometry": {"type": "Point", "coordinates": [32.3295, 36.2363]}}, {"type": "Feature", "id": "http://data.archaeology.link/data/ancientports/2516", "name": "Ismail (2516)", "dateprops": [], "properties": {}, "geometry": {"type": "Point", "coordinates": [28.83152, 45.32624]}}, {"type": "Feature", "id": "http://data.archaeology.link/data/ancientports/252_2", "name": "Porto do Sabugueiro, near Muge on R Tage  (252_2)", "dateprops": [], "properties": {}, "geometry": {"type": "Point", "coordinates": [-8.7118, 39.1228]}}, {"type": "Feature", "id": "http://data.archaeology.link/data/ancientports/1309", "name": "Pesaro, on R Foglia (1309)", "dateprops": [], "properties": {}, "geometry": {"type": "Point", "coordinates": [12.92, 43.9159]}}, {"type": "Feature", "id": "http://data.archaeology.link/data/ancientports/2440_2", "name": "Silistar, on R Silistar (2440_2)", "dateprops": [], "properties": {}, "geometry": {"type": "Point", "coordinates": [28.0107, 42.0228]}}, {"type": "Feature", "id": "http://data.archaeology.link/data/ancientports/4173", "name": "Rades (4173)", "dateprops": [], "properties": {}, "geometry": {"type": "Point", "coordinates": [10.29461, 36.79847]}}, {"type": "Feature", "id": "http://data.archaeology.link/data/ancientports/3845", "name": "Ras Fasta, at Pasabandar, near outlet of R Pishin, but unidentified Ziba island (3845)", "dateprops": [], "properties": {}, "geometry": {"type": "Point", "coordinates": [61.43, 25.057]}}, {"type": "Feature", "id": "http://data.archaeology.link/data/ancientports/491", "name": "near Cala en Porter (491)", "dateprops": [], "properties": {}, "geometry": {"type": "Point", "coordinates": [4.14374, 39.86056]}}, {"type": "Feature", "id": "http://data.archaeology.link/data/ancientports/1523", "name": "Kepi i Treportit (1523)", "dateprops": [], "properties": {}, "geometry": {"type": "Point", "coordinates": [19.408, 40.5]}}, {"type": "Feature", "id": "http://data.archaeology.link/data/ancientports/2736", "name": "Tirebolu (2736)", "dateprops": [], "properties": {}, "geometry": {"type": "Point", "coordinates": [38.82144, 41.00809]}}, {"type": "Feature", "id": "http://data.archaeology.link/data/ancientports/736", "name": "Figari (736)", "dateprops": [], "properties": {}, "geometry": {"type": "Point", "coordinates": [9.07522, 41.47415]}}, {"type": "Feature", "id": "http://data.archaeology.link/data/ancientports/1385_3", "name": "Uvala Kala (1385_3)", "dateprops": [], "properties": {}, "geometry": {"type": "Point", "coordinates": [13.981, 44.8532]}}, {"type": "Feature", "id": "http://data.archaeology.link/data/ancientports/2459", "name": "Pomorie (2459)", "dateprops": [], "properties": {}, "geometry": {"type": "Point", "coordinates": [27.638, 42.553]}}, {"type": "Feature", "id": "http://data.archaeology.link/data/ancientports/3775", "name": "Cuscan according to Forster, Haffah Bay?? (3775)", "dateprops": [], "properties": {}, "geometry": {"type": "Point", "coordinates": [56.29684, 25.73025]}}, {"type": "Feature", "id": "http://data.archaeology.link/data/ancientports/866", "name": "Isle of Elba (866)", "dateprops": [], "properties": {}, "geometry": {"type": "Point", "coordinates": [10.2738, 42.77015]}}, {"type": "Feature", "id": "http://data.archaeology.link/data/ancientports/2489", "name": "Sariurt (2489)", "dateprops": [], "properties": {}, "geometry": {"type": "Point", "coordinates": [28.70366, 44.6888]}}, {"type": "Feature", "id": "http://data.archaeology.link/data/ancientports/1453_2", "name": "Kastel Stari (1453_2)", "dateprops": [], "properties": {}, "geometry": {"type": "Point", "coordinates": [16.3425, 43.548]}}, {"type": "Feature", "id": "http://data.archaeology.link/data/ancientports/4262", "name": "Les Andalouses  (4262)", "dateprops": [], "properties": {}, "geometry": {"type": "Point", "coordinates": [-0.8944, 35.7085]}}, {"type": "Feature", "id": "http://data.archaeology.link/data/ancientports/109_8", "name": "Tregeare Rounds oppidum (109_8)", "dateprops": [], "properties": {}, "geometry": {"type": "Point", "coordinates": [-4.7797, 50.5868]}}, {"type": "Feature", "id": "http://data.archaeology.link/data/ancientports/750", "name": "Canelle, near Canari (750)", "dateprops": [], "properties": {}, "geometry": {"type": "Point", "coordinates": [9.313, 42.828]}}, {"type": "Feature", "id": "http://data.archaeology.link/data/ancientports/3915_6", "name": "Quarry at Montazah (3915_6)", "dateprops": [], "properties": {}, "geometry": {"type": "Point", "coordinates": [30.0198, 31.2944]}}, {"type": "Feature", "id": "http://data.archaeology.link/data/ancientports/3535", "name": "Marsa Abu Makhadiq (3535)", "dateprops": [], "properties": {}, "geometry": {"type": "Point", "coordinates": [33.89331, 27.04182]}}, {"type": "Feature", "id": "http://data.archaeology.link/data/ancientports/2319", "name": "Diodore mentions that the breakwater of the large port is located at only 150 m of the city walls. The commercial port of Emborio (or Kolona) became the port of the medieval city, still with remparts.  (2319)", "dateprops": [], "properties": {}, "geometry": {"type": "Point", "coordinates": [28.23009, 36.44496]}}, {"type": "Feature", "id": "http://data.archaeology.link/data/ancientports/1921", "name": "Porto Kagio on Cape Tenare, ex-Matapan (1921)", "dateprops": [], "properties": {}, "geometry": {"type": "Point", "coordinates": [22.486, 36.4293]}}, {"type": "Feature", "id": "http://data.archaeology.link/data/ancientports/2872", "name": "Yalova (2872)", "dateprops": [], "properties": {}, "geometry": {"type": "Point", "coordinates": [29.27, 40.66579]}}, {"type": "Feature", "id": "http://data.archaeology.link/data/ancientports/2225", "name": "near Panagioudia, on the isle of Lesbos, Lesvos (2225)", "dateprops": [], "properties": {}, "geometry": {"type": "Point", "coordinates": [26.531, 39.1359]}}, {"type": "Feature", "id": "http://data.archaeology.link/data/ancientports/3106", "name": "Besiktepe, Besik-Tepe, near Tavakli (3106)", "dateprops": [], "properties": {}, "geometry": {"type": "Point", "coordinates": [26.1617, 39.7165]}}, {"type": "Feature", "id": "http://data.archaeology.link/data/ancientports/404", "name": "Els Banys de la Reina, Penon de Ifach, at Calpe (404)", "dateprops": [], "properties": {}, "geometry": {"type": "Point", "coordinates": [0.0612, 38.6414]}}, {"type": "Feature", "id": "http://data.archaeology.link/data/ancientports/85_1", "name": "Cissbury Ring oppidum (85_1)", "dateprops": [], "properties": {}, "geometry": {"type": "Point", "coordinates": [-0.3829, 50.8605]}}, {"type": "Feature", "id": "http://data.archaeology.link/data/ancientports/46_1", "name": "Arthur's Seat, Edimburgh, oppidum (46_1)", "dateprops": [], "properties": {}, "geometry": {"type": "Point", "coordinates": [-3.1623, 55.9437]}}, {"type": "Feature", "id": "http://data.archaeology.link/data/ancientports/392", "name": "La Fonteta, near Guardamar del Segura, on the estuary of R Segura (Herna is located inland at Pena Negra, Crevillent) (392)", "dateprops": [], "properties": {}, "geometry": {"type": "Point", "coordinates": [-0.65027, 38.10151]}}, {"type": "Feature", "id": "http://data.archaeology.link/data/ancientports/1034", "name": "Cirella (1034)", "dateprops": [], "properties": {}, "geometry": {"type": "Point", "coordinates": [15.80418, 39.70901]}}, {"type": "Feature", "id": "http://data.archaeology.link/data/ancientports/1452", "name": "Gornja Polja, on the isle of Solta (1452)", "dateprops": [], "properties": {}, "geometry": {"type": "Point", "coordinates": [16.36769, 43.35717]}}, {"type": "Feature", "id": "http://data.archaeology.link/data/ancientports/200_5", "name": "Roman villa at Ponte Pasaxe, on Ria de Coruna (200_5)", "dateprops": [], "properties": {}, "geometry": {"type": "Point", "coordinates": [-8.3832, 43.3353]}}, {"type": "Feature", "id": "http://data.archaeology.link/data/ancientports/2582", "name": "Kara-Tobe, near Pryberezhne (2582)", "dateprops": [], "properties": {}, "geometry": {"type": "Point", "coordinates": [33.51925, 45.13947]}}, {"type": "Feature", "id": "http://data.archaeology.link/data/ancientports/627_2", "name": "Tintaine la Haut, near Gruissan (627_2)", "dateprops": [], "properties": {}, "geometry": {"type": "Point", "coordinates": [3.1206, 43.1308]}}, {"type": "Feature", "id": "http://data.archaeology.link/data/ancientports/1128", "name": "near Casa Targia (1128)", "dateprops": [], "properties": {}, "geometry": {"type": "Point", "coordinates": [15.24719, 37.11734]}}, {"type": "Feature", "id": "http://data.archaeology.link/data/ancientports/4214", "name": "Mers el-Zitoun, at the outlet of wadi Zhour (4214)", "dateprops": [], "properties": {}, "geometry": {"type": "Point", "coordinates": [6.24961, 36.93151]}}, {"type": "Feature", "id": "http://data.archaeology.link/data/ancientports/2932", "name": "Temple at Lera, near Stavros (2932)", "dateprops": [], "properties": {}, "geometry": {"type": "Point", "coordinates": [24.1026, 35.5903]}}, {"type": "Feature", "id": "http://data.archaeology.link/data/ancientports/835", "name": "Lavagna (835)", "dateprops": [], "properties": {}, "geometry": {"type": "Point", "coordinates": [9.33881, 44.29915]}}, {"type": "Feature", "id": "http://data.archaeology.link/data/ancientports/556", "name": "Gorre-Bloue, Plouescat (556)", "dateprops": [], "properties": {}, "geometry": {"type": "Point", "coordinates": [-4.16033, 48.65427]}}, {"type": "Feature", "id": "http://data.archaeology.link/data/ancientports/1418_2", "name": "Plemici beach, near Rtina (1418_2)", "dateprops": [], "properties": {}, "geometry": {"type": "Point", "coordinates": [15.2956, 44.2788]}}, {"type": "Feature", "id": "http://data.archaeology.link/data/ancientports/3398", "name": "Karayilan  (3398)", "dateprops": [], "properties": {}, "geometry": {"type": "Point", "coordinates": [36.2269, 36.7115]}}, {"type": "Feature", "id": "http://data.archaeology.link/data/ancientports/298", "name": "Alfanxia, near Fuseta (298)", "dateprops": [], "properties": {}, "geometry": {"type": "Point", "coordinates": [-7.74195, 37.05136]}}, {"type": "Feature", "id": "http://data.archaeology.link/data/ancientports/1583", "name": "Portes Skoupas? now inland (1583)", "dateprops": [], "properties": {}, "geometry": {"type": "Point", "coordinates": [21.202, 38.3616]}}, {"type": "Feature", "id": "http://data.archaeology.link/data/ancientports/1520", "name": "near Kavajes (1520)", "dateprops": [], "properties": {}, "geometry": {"type": "Point", "coordinates": [19.509, 41.2708]}}, {"type": "Feature", "id": "http://data.archaeology.link/data/ancientports/208", "name": "Torres del Oeste, Catoira, Pontevedra (208)", "dateprops": [], "properties": {}, "geometry": {"type": "Point", "coordinates": [-8.725, 42.6766]}}, {"type": "Feature", "id": "http://data.archaeology.link/data/ancientports/2642", "name": "Vysochino (2642)", "dateprops": [], "properties": {}, "geometry": {"type": "Point", "coordinates": [39.33561, 47.11322]}}, {"type": "Feature", "id": "http://data.archaeology.link/data/ancientports/2771", "name": "K\u00f6sk H\u00f6y\u00fck, near Gerze (2771)", "dateprops": [], "properties": {}, "geometry": {"type": "Point", "coordinates": [35.20145, 41.79204]}}, {"type": "Feature", "id": "http://data.archaeology.link/data/ancientports/3541", "name": "Mina Safaga (3541)", "dateprops": [], "properties": {}, "geometry": {"type": "Point", "coordinates": [33.95637, 26.74003]}}, {"type": "Feature", "id": "http://data.archaeology.link/data/ancientports/3859_5", "name": "Makli hill? now inland, near Thatta (Medieval Debal), such a large island must have been seen by Alexander (3859_5)", "dateprops": [], "properties": {}, "geometry": {"type": "Point", "coordinates": [67.86, 24.73]}}, {"type": "Feature", "id": "http://data.archaeology.link/data/ancientports/4324", "name": "Mehdia (4324)", "dateprops": [], "properties": {}, "geometry": {"type": "Point", "coordinates": [-6.65425, 34.26808]}}, {"type": "Feature", "id": "http://data.archaeology.link/data/ancientports/61_6", "name": "Denver, on R Ouse (61_6)", "dateprops": [], "properties": {}, "geometry": {"type": "Point", "coordinates": [0.3495, 52.5838]}}, {"type": "Feature", "id": "http://data.archaeology.link/data/ancientports/800", "name": "porto di Vignola, near Aglientu (800)", "dateprops": [], "properties": {}, "geometry": {"type": "Point", "coordinates": [9.0601, 41.12946]}}, {"type": "Feature", "id": "http://data.archaeology.link/data/ancientports/919", "name": "Stella-Buoi, Stalla Buoi, at the outlet of the Canale Romano on R Tiber, immediately east of Portus Trajanus (919)", "dateprops": [], "properties": {}, "geometry": {"type": "Point", "coordinates": [12.27949, 41.78119]}}, {"type": "Feature", "id": "http://data.archaeology.link/data/ancientports/3631", "name": "Ras Dumeira at Rahayta? Ptolemy locates Arsinoe at 20\u2019 of latitude south of Dire, which corresponds to the lagoon of Godoria on the North coast of Djibouti near 12\u00b009\u2019 of latitude. He nevertheless mentions it north of Dire on his list, as does Strabo \u2026 which makes some authors think the site is at Ras Dumeira. Monfreid's Raheita (3631)", "dateprops": [], "properties": {}, "geometry": {"type": "Point", "coordinates": [43.1305, 12.7111]}}, {"type": "Feature", "id": "http://data.archaeology.link/data/ancientports/124", "name": "Neath, on R Neath (124)", "dateprops": [], "properties": {}, "geometry": {"type": "Point", "coordinates": [-3.81167, 51.664]}}, {"type": "Feature", "id": "http://data.archaeology.link/data/ancientports/3414", "name": "Minet el-Beida, near Ras Shamra, on R Nahr el-Fidd, Fayd (3414)", "dateprops": [], "properties": {}, "geometry": {"type": "Point", "coordinates": [35.77212, 35.60915]}}, {"type": "Feature", "id": "http://data.archaeology.link/data/ancientports/3746", "name": "Husn al-Ghurab ('Crow's fort', Fort du Corbeau), at Mawiyat, near Bir Ali (3746)", "dateprops": [], "properties": {}, "geometry": {"type": "Point", "coordinates": [48.3251, 14.0114]}}, {"type": "Feature", "id": "http://data.archaeology.link/data/ancientports/1850", "name": "Mesembria (1850)", "dateprops": [], "properties": {}, "geometry": {"type": "Point", "coordinates": [25.6734, 40.8543]}}, {"type": "Feature", "id": "http://data.archaeology.link/data/ancientports/2977_1", "name": "Agia Photia (2977_1)", "dateprops": [], "properties": {}, "geometry": {"type": "Point", "coordinates": [26.1478, 35.1959]}}, {"type": "Feature", "id": "http://data.archaeology.link/data/ancientports/2588", "name": "Roman naval base, near Karantynna Bay, La Quarantaine, with very large fish processing factory (2588)", "dateprops": [], "properties": {}, "geometry": {"type": "Point", "coordinates": [33.4914, 44.61]}}, {"type": "Feature", "id": "http://data.archaeology.link/data/ancientports/3027", "name": "Stomio bay? Ptolemy locates Rhamous portus at 10\u2019 of latitude south of Phalasarna, near the beach of Stomio (3027)", "dateprops": [], "properties": {}, "geometry": {"type": "Point", "coordinates": [23.54097, 35.32341]}}, {"type": "Feature", "id": "http://data.archaeology.link/data/ancientports/3594", "name": "Marsa Gafatir (3594)", "dateprops": [], "properties": {}, "geometry": {"type": "Point", "coordinates": [36.9197, 21.59522]}}, {"type": "Feature", "id": "http://data.archaeology.link/data/ancientports/4125", "name": "near al-Hushayshinah (4125)", "dateprops": [], "properties": {}, "geometry": {"type": "Point", "coordinates": [10.19198, 34.37502]}}, {"type": "Feature", "id": "http://data.archaeology.link/data/ancientports/1129", "name": "near a tower called Geleagre, at Syracuse, Santa Panagia (1129)", "dateprops": [], "properties": {}, "geometry": {"type": "Point", "coordinates": [15.27774, 37.1084]}}, {"type": "Feature", "id": "http://data.archaeology.link/data/ancientports/3915_4", "name": "Submerged city in the bay of Abu Qir (3915_4)", "dateprops": [], "properties": {}, "geometry": {"type": "Point", "coordinates": [30.088, 31.3162]}}, {"type": "Feature", "id": "http://data.archaeology.link/data/ancientports/115_1", "name": "Bat's Castle oppidum (115_1)", "dateprops": [], "properties": {}, "geometry": {"type": "Point", "coordinates": [-3.4487, 51.1696]}}, {"type": "Feature", "id": "http://data.archaeology.link/data/ancientports/560_3", "name": "Pentrez, near Saint Nic, large fish processing factory (560_3)", "dateprops": [], "properties": {}, "geometry": {"type": "Point", "coordinates": [-4.3069, 48.1963]}}, {"type": "Feature", "id": "http://data.archaeology.link/data/ancientports/1470", "name": "Stari Grad, on the isle of Hvar (1470)", "dateprops": [], "properties": {}, "geometry": {"type": "Point", "coordinates": [16.5969, 43.1848]}}, {"type": "Feature", "id": "http://data.archaeology.link/data/ancientports/88", "name": "Bosham Harbour (88)", "dateprops": [], "properties": {}, "geometry": {"type": "Point", "coordinates": [-0.8594, 50.8283]}}, {"type": "Feature", "id": "http://data.archaeology.link/data/ancientports/665", "name": "Carry le Rouet (665)", "dateprops": [], "properties": {}, "geometry": {"type": "Point", "coordinates": [5.15432, 43.32597]}}, {"type": "Feature", "id": "http://data.archaeology.link/data/ancientports/2051", "name": "Maroulas, near Loutra, with submerged BA settlement, on the isle of Kythnos, Termiye (2051)", "dateprops": [], "properties": {}, "geometry": {"type": "Point", "coordinates": [24.431, 37.447]}}, {"type": "Feature", "id": "http://data.archaeology.link/data/ancientports/1804", "name": "Porto Koufo (1804)", "dateprops": [], "properties": {}, "geometry": {"type": "Point", "coordinates": [23.918, 39.9709]}}, {"type": "Feature", "id": "http://data.archaeology.link/data/ancientports/3921", "name": "Cairo, Imbaba, Embabeh (3921)", "dateprops": [], "properties": {}, "geometry": {"type": "Point", "coordinates": [31.223, 30.089]}}, {"type": "Feature", "id": "http://data.archaeology.link/data/ancientports/509_2", "name": "Neolithic settlement at Les Sablins, near Etaples, on R Canche (509_2)", "dateprops": [], "properties": {}, "geometry": {"type": "Point", "coordinates": [1.6634, 50.5078]}}, {"type": "Feature", "id": "http://data.archaeology.link/data/ancientports/853", "name": "Isola di Coltano (853)", "dateprops": [], "properties": {}, "geometry": {"type": "Point", "coordinates": [10.3934, 43.6386]}}, {"type": "Feature", "id": "http://data.archaeology.link/data/ancientports/827", "name": "Voltri (827)", "dateprops": [], "properties": {}, "geometry": {"type": "Point", "coordinates": [8.74487, 44.42237]}}, {"type": "Feature", "id": "http://data.archaeology.link/data/ancientports/2703", "name": "R Tsiva, Tsivi (2703)", "dateprops": [], "properties": {}, "geometry": {"type": "Point", "coordinates": [41.6422, 42.2627]}}, {"type": "Feature", "id": "http://data.archaeology.link/data/ancientports/4196", "name": "Sidi Mechrig  (4196)", "dateprops": [], "properties": {}, "geometry": {"type": "Point", "coordinates": [9.11984, 37.16208]}}, {"type": "Feature", "id": "http://data.archaeology.link/data/ancientports/2050_1", "name": "Apokrysi, on the isle of Kythnos, Termiye (2050_1)", "dateprops": [], "properties": {}, "geometry": {"type": "Point", "coordinates": [24.395, 37.409]}}, {"type": "Feature", "id": "http://data.archaeology.link/data/ancientports/2628", "name": "Mius\u2019kyi Firth, near Cape Beglyts\u2019ka (2628)", "dateprops": [], "properties": {}, "geometry": {"type": "Point", "coordinates": [38.474, 47.135]}}, {"type": "Feature", "id": "http://data.archaeology.link/data/ancientports/2025", "name": "Stamphanion and Harpyia islands (2025)", "dateprops": [], "properties": {}, "geometry": {"type": "Point", "coordinates": [21.01005, 37.25616]}}, {"type": "Feature", "id": "http://data.archaeology.link/data/ancientports/2295", "name": "Bathos, Vathys, on the isle of Kalymnos  (2295)", "dateprops": [], "properties": {}, "geometry": {"type": "Point", "coordinates": [27.0273, 36.9744]}}, {"type": "Feature", "id": "http://data.archaeology.link/data/ancientports/2173", "name": "Kamariotissa, on the isle of Samothrace (2173)", "dateprops": [], "properties": {}, "geometry": {"type": "Point", "coordinates": [25.4739, 40.4758]}}, {"type": "Feature", "id": "http://data.archaeology.link/data/ancientports/3145_2", "name": "Yassica Ada island (3145_2)", "dateprops": [], "properties": {}, "geometry": {"type": "Point", "coordinates": [26.7955, 38.406]}}, {"type": "Feature", "id": "http://data.archaeology.link/data/ancientports/2238_3", "name": "Agios Demetrios, on the isle of Alonnisos, Alonissos (2238_3)", "dateprops": [], "properties": {}, "geometry": {"type": "Point", "coordinates": [23.9453, 39.2209]}}, {"type": "Feature", "id": "http://data.archaeology.link/data/ancientports/2240", "name": "Ormos Vasiliko, on the isle of Peristera, Xeronesi (2240)", "dateprops": [], "properties": {}, "geometry": {"type": "Point", "coordinates": [23.978, 39.2019]}}, {"type": "Feature", "id": "http://data.archaeology.link/data/ancientports/2324", "name": "Aphantou, on the isle of Rhodes (2324)", "dateprops": [], "properties": {}, "geometry": {"type": "Point", "coordinates": [28.17824, 36.28189]}}, {"type": "Feature", "id": "http://data.archaeology.link/data/ancientports/3546", "name": "Quei, Quway, Kuwe (3546)", "dateprops": [], "properties": {}, "geometry": {"type": "Point", "coordinates": [34.1623, 26.3497]}}, {"type": "Feature", "id": "http://data.archaeology.link/data/ancientports/3915", "name": "Nelson's island, Dissouky island, near Aboukir, Abu Qir (3915)", "dateprops": [], "properties": {}, "geometry": {"type": "Point", "coordinates": [30.1065, 31.3576]}}, {"type": "Feature", "id": "http://data.archaeology.link/data/ancientports/1757", "name": "Theotokos church, near Liri (1757)", "dateprops": [], "properties": {}, "geometry": {"type": "Point", "coordinates": [23.3441, 39.1925]}}, {"type": "Feature", "id": "http://data.archaeology.link/data/ancientports/1616", "name": "Psatha, near Megaris (1616)", "dateprops": [], "properties": {}, "geometry": {"type": "Point", "coordinates": [23.2157, 38.1176]}}, {"type": "Feature", "id": "http://data.archaeology.link/data/ancientports/2607", "name": "about 13 km from Kerch, near Eltiguen memorial (2607)", "dateprops": [], "properties": {}, "geometry": {"type": "Point", "coordinates": [36.41735, 45.23668]}}, {"type": "Feature", "id": "http://data.archaeology.link/data/ancientports/336", "name": "Puente Zuazo, San Fernando, with a Roman bridge (336)", "dateprops": [], "properties": {}, "geometry": {"type": "Point", "coordinates": [-6.18502, 36.46946]}}, {"type": "Feature", "id": "http://data.archaeology.link/data/ancientports/2630", "name": "near Nedvigovka on R Don (2630)", "dateprops": [], "properties": {}, "geometry": {"type": "Point", "coordinates": [39.33543, 47.26811]}}, {"type": "Feature", "id": "http://data.archaeology.link/data/ancientports/2185", "name": "Ormos Moudhrou, on the isle of Lemnos (2185)", "dateprops": [], "properties": {}, "geometry": {"type": "Point", "coordinates": [25.2, 39.8567]}}, {"type": "Feature", "id": "http://data.archaeology.link/data/ancientports/3713_1", "name": "Machaga cave, on Unguja island (Zanzibar) ; note that Ptolemy means Madagascar when speaking about Menuthias insula (3713_1)", "dateprops": [], "properties": {}, "geometry": {"type": "Point", "coordinates": [39.4167, -6.2555]}}, {"type": "Feature", "id": "http://data.archaeology.link/data/ancientports/1634", "name": "Vouliagmeni  (1634)", "dateprops": [], "properties": {}, "geometry": {"type": "Point", "coordinates": [23.77843, 37.80982]}}, {"type": "Feature", "id": "http://data.archaeology.link/data/ancientports/3397", "name": "Payas, on R Payas (3397)", "dateprops": [], "properties": {}, "geometry": {"type": "Point", "coordinates": [36.201, 36.754]}}, {"type": "Feature", "id": "http://data.archaeology.link/data/ancientports/1685_1", "name": "Anthili (1685_1)", "dateprops": [], "properties": {}, "geometry": {"type": "Point", "coordinates": [22.5105, 38.7956]}}, {"type": "Feature", "id": "http://data.archaeology.link/data/ancientports/2232", "name": "Roman fort at Agia Anastasia? on the isle of Skiathos  (2232)", "dateprops": [], "properties": {}, "geometry": {"type": "Point", "coordinates": [23.4564, 39.1946]}}, {"type": "Feature", "id": "http://data.archaeology.link/data/ancientports/763", "name": "Cuccureddus (763)", "dateprops": [], "properties": {}, "geometry": {"type": "Point", "coordinates": [9.4909, 39.1359]}}, {"type": "Feature", "id": "http://data.archaeology.link/data/ancientports/341", "name": "Isle of Sancti-Petri (341)", "dateprops": [], "properties": {}, "geometry": {"type": "Point", "coordinates": [-6.2201, 36.3797]}}, {"type": "Feature", "id": "http://data.archaeology.link/data/ancientports/1481", "name": "Tamnica, at Ploce (1481)", "dateprops": [], "properties": {}, "geometry": {"type": "Point", "coordinates": [17.43273, 43.05127]}}, {"type": "Feature", "id": "http://data.archaeology.link/data/ancientports/2422", "name": "Asiyan Point, south of Rumeli Hisari (2422)", "dateprops": [], "properties": {}, "geometry": {"type": "Point", "coordinates": [29.056, 41.08]}}, {"type": "Feature", "id": "http://data.archaeology.link/data/ancientports/1058", "name": "Scilla (1058)", "dateprops": [], "properties": {}, "geometry": {"type": "Point", "coordinates": [15.71559, 38.25924]}}, {"type": "Feature", "id": "http://data.archaeology.link/data/ancientports/2784", "name": "Inebolu (2784)", "dateprops": [], "properties": {}, "geometry": {"type": "Point", "coordinates": [33.75879, 41.98133]}}, {"type": "Feature", "id": "http://data.archaeology.link/data/ancientports/4024", "name": "Gasr Mushayli, Msceili, Schmeili (4024)", "dateprops": [], "properties": {}, "geometry": {"type": "Point", "coordinates": [19.9464, 31.7269]}}, {"type": "Feature", "id": "http://data.archaeology.link/data/ancientports/2397", "name": "B\u00fcy\u00fckcekmece (2397)", "dateprops": [], "properties": {}, "geometry": {"type": "Point", "coordinates": [28.597, 41.016]}}, {"type": "Feature", "id": "http://data.archaeology.link/data/ancientports/454", "name": "Palma de Mallorca  (454)", "dateprops": [], "properties": {}, "geometry": {"type": "Point", "coordinates": [2.64505, 39.56152]}}, {"type": "Feature", "id": "http://data.archaeology.link/data/ancientports/577", "name": "Isle of Houat (577)", "dateprops": [], "properties": {}, "geometry": {"type": "Point", "coordinates": [-2.96713, 47.38844]}}, {"type": "Feature", "id": "http://data.archaeology.link/data/ancientports/3486_1", "name": "Dor, Dora, Moshav Bay, North Bay (3486_1)", "dateprops": [], "properties": {}, "geometry": {"type": "Point", "coordinates": [34.91774, 32.62058]}}, {"type": "Feature", "id": "http://data.archaeology.link/data/ancientports/224", "name": "Santa Luzia, above Viana do Castelo on R Lima  (224)", "dateprops": [], "properties": {}, "geometry": {"type": "Point", "coordinates": [-8.83435, 41.68854]}}, {"type": "Feature", "id": "http://data.archaeology.link/data/ancientports/1791", "name": "Posidi (1791)", "dateprops": [], "properties": {}, "geometry": {"type": "Point", "coordinates": [23.383, 39.9629]}}, {"type": "Feature", "id": "http://data.archaeology.link/data/ancientports/435", "name": "Turo de Montgat (435)", "dateprops": [], "properties": {}, "geometry": {"type": "Point", "coordinates": [2.27867, 41.46592]}}, {"type": "Feature", "id": "http://data.archaeology.link/data/ancientports/1502_2", "name": "Slano (1502_2)", "dateprops": [], "properties": {}, "geometry": {"type": "Point", "coordinates": [17.886, 42.785]}}, {"type": "Feature", "id": "http://data.archaeology.link/data/ancientports/1703", "name": "west of Lefkanti, near R Lilas (1703)", "dateprops": [], "properties": {}, "geometry": {"type": "Point", "coordinates": [23.6633, 38.404]}}, {"type": "Feature", "id": "http://data.archaeology.link/data/ancientports/2413", "name": "Aynalikavak Kasri, in the Golden Horn (2413)", "dateprops": [], "properties": {}, "geometry": {"type": "Point", "coordinates": [28.955, 41.038]}}, {"type": "Feature", "id": "http://data.archaeology.link/data/ancientports/4034", "name": "Scoglio Gemmarish? (4034)", "dateprops": [], "properties": {}, "geometry": {"type": "Point", "coordinates": [19.96209, 30.77629]}}, {"type": "Feature", "id": "http://data.archaeology.link/data/ancientports/122_2", "name": "Dunraven oppidum (122_2)", "dateprops": [], "properties": {}, "geometry": {"type": "Point", "coordinates": [-3.6028, 51.4432]}}, {"type": "Feature", "id": "http://data.archaeology.link/data/ancientports/1947_2", "name": "near Epitalio (1947_2)", "dateprops": [], "properties": {}, "geometry": {"type": "Point", "coordinates": [21.48, 37.66]}}, {"type": "Feature", "id": "http://data.archaeology.link/data/ancientports/2057", "name": "Kionia, on the isle of Tenos (2057)", "dateprops": [], "properties": {}, "geometry": {"type": "Point", "coordinates": [25.1421, 37.552]}}, {"type": "Feature", "id": "http://data.archaeology.link/data/ancientports/106_7", "name": "Chynhalls Point oppidum (106_7)", "dateprops": [], "properties": {}, "geometry": {"type": "Point", "coordinates": [-5.093, 50.016]}}, {"type": "Feature", "id": "http://data.archaeology.link/data/ancientports/2886_2", "name": "near Bogaz, on R Capraz (2886_2)", "dateprops": [], "properties": {}, "geometry": {"type": "Point", "coordinates": [28.47839, 40.36665]}}, {"type": "Feature", "id": "http://data.archaeology.link/data/ancientports/1531", "name": "Saranda, in front of Corfu (1531)", "dateprops": [], "properties": {}, "geometry": {"type": "Point", "coordinates": [20.008, 39.8716]}}, {"type": "Feature", "id": "http://data.archaeology.link/data/ancientports/3635", "name": "between Murad and Dhubab (3635)", "dateprops": [], "properties": {}, "geometry": {"type": "Point", "coordinates": [43.464, 12.831]}}, {"type": "Feature", "id": "http://data.archaeology.link/data/ancientports/3252", "name": "SE of Kasara (3252)", "dateprops": [], "properties": {}, "geometry": {"type": "Point", "coordinates": [28.077, 36.602]}}, {"type": "Feature", "id": "http://data.archaeology.link/data/ancientports/4191_5", "name": "Jebel Ichkeul: if lake Ichkeul and the lake of Bizerte were once connected, with some islands in it, then Scylax's description would nicely fit (4191_5)", "dateprops": [], "properties": {}, "geometry": {"type": "Point", "coordinates": [9.661, 37.123]}}, {"type": "Feature", "id": "http://data.archaeology.link/data/ancientports/3156", "name": "Alacati, inside Agrilar Limani (3156)", "dateprops": [], "properties": {}, "geometry": {"type": "Point", "coordinates": [26.38, 38.25]}}, {"type": "Feature", "id": "http://data.archaeology.link/data/ancientports/3139", "name": "Eskif\u00f6ca, Foca near Izmir (3139)", "dateprops": [], "properties": {}, "geometry": {"type": "Point", "coordinates": [26.75426, 38.67017]}}, {"type": "Feature", "id": "http://data.archaeology.link/data/ancientports/3659_1", "name": "al-Qahma, in Khor al-Wasm? 13 km SE of Dhahban (3659_1)", "dateprops": [], "properties": {}, "geometry": {"type": "Point", "coordinates": [41.665, 18.002]}}, {"type": "Feature", "id": "http://data.archaeology.link/data/ancientports/3861_8", "name": "Diva Dandi lighthouse at Mul Dwarka, near Kodinar, on R Shinghoda (3861_8)", "dateprops": [], "properties": {}, "geometry": {"type": "Point", "coordinates": [70.6613, 20.7593]}}, {"type": "Feature", "id": "http://data.archaeology.link/data/ancientports/791", "name": "Bosa Marina, at outlet of R Temo (791)", "dateprops": [], "properties": {}, "geometry": {"type": "Point", "coordinates": [8.46942, 40.28454]}}, {"type": "Feature", "id": "http://data.archaeology.link/data/ancientports/1177_1", "name": "Punta San Nicola, on the isle of Favignana (1177_1)", "dateprops": [], "properties": {}, "geometry": {"type": "Point", "coordinates": [12.3427, 37.9359]}}, {"type": "Feature", "id": "http://data.archaeology.link/data/ancientports/32_1", "name": "De Oude Oostdijk, Goedereede, on the isle of Goeree (32_1)", "dateprops": [], "properties": {}, "geometry": {"type": "Point", "coordinates": [3.981, 51.823]}}, {"type": "Feature", "id": "http://data.archaeology.link/data/ancientports/2363", "name": "near Kavakk\u00f6y (2363)", "dateprops": [], "properties": {}, "geometry": {"type": "Point", "coordinates": [26.849, 40.5895]}}, {"type": "Feature", "id": "http://data.archaeology.link/data/ancientports/3556", "name": "Marsa Umm Gheig (3556)", "dateprops": [], "properties": {}, "geometry": {"type": "Point", "coordinates": [34.5469, 25.7262]}}, {"type": "Feature", "id": "http://data.archaeology.link/data/ancientports/3810_1", "name": "Possibly in this area which is now being filled with sediment from R Jarrahi (3810_1)", "dateprops": [], "properties": {}, "geometry": {"type": "Point", "coordinates": [48.67, 30.43]}}, {"type": "Feature", "id": "http://data.archaeology.link/data/ancientports/3863_7", "name": "Malwan (3863_7)", "dateprops": [], "properties": {}, "geometry": {"type": "Point", "coordinates": [73.446, 16.045]}}, {"type": "Feature", "id": "http://data.archaeology.link/data/ancientports/904", "name": "Santa Marinella (904)", "dateprops": [], "properties": {}, "geometry": {"type": "Point", "coordinates": [11.8544, 42.0343]}}, {"type": "Feature", "id": "http://data.archaeology.link/data/ancientports/2598", "name": "Sougdaia, near Sudak (2598)", "dateprops": [], "properties": {}, "geometry": {"type": "Point", "coordinates": [34.9635, 44.8396]}}, {"type": "Feature", "id": "http://data.archaeology.link/data/ancientports/3662", "name": "Marsa Ibrahim, near al-Lith (3662)", "dateprops": [], "properties": {}, "geometry": {"type": "Point", "coordinates": [40.2394, 20.1548]}}, {"type": "Feature", "id": "http://data.archaeology.link/data/ancientports/2833", "name": "Umuryeri, near Macarburnu (2833)", "dateprops": [], "properties": {}, "geometry": {"type": "Point", "coordinates": [29.072, 41.164]}}, {"type": "Feature", "id": "http://data.archaeology.link/data/ancientports/968_1", "name": "Outlet of R Garigliano (968_1)", "dateprops": [], "properties": {}, "geometry": {"type": "Point", "coordinates": [13.7645, 41.2265]}}, {"type": "Feature", "id": "http://data.archaeology.link/data/ancientports/1030", "name": "Isle of Santo Janni, Santoianni  (1030)", "dateprops": [], "properties": {}, "geometry": {"type": "Point", "coordinates": [15.716, 39.9673]}}, {"type": "Feature", "id": "http://data.archaeology.link/data/ancientports/4329", "name": "Casablanca (4329)", "dateprops": [], "properties": {}, "geometry": {"type": "Point", "coordinates": [-7.61631, 33.60309]}}, {"type": "Feature", "id": "http://data.archaeology.link/data/ancientports/2790", "name": "Timne, near Ugurlu (2790)", "dateprops": [], "properties": {}, "geometry": {"type": "Point", "coordinates": [33.171, 41.96]}}, {"type": "Feature", "id": "http://data.archaeology.link/data/ancientports/1587", "name": "Fort at Treis Ekklesies, near Aitoliko  (1587)", "dateprops": [], "properties": {}, "geometry": {"type": "Point", "coordinates": [21.389, 38.413]}}, {"type": "Feature", "id": "http://data.archaeology.link/data/ancientports/2641", "name": "Krepostnoe, near Azov (2641)", "dateprops": [], "properties": {}, "geometry": {"type": "Point", "coordinates": [39.3898, 47.1208]}}, {"type": "Feature", "id": "http://data.archaeology.link/data/ancientports/2706_1", "name": "Namarnu area, on R Phichori (2706_1)", "dateprops": [], "properties": {}, "geometry": {"type": "Point", "coordinates": [41.74, 42.15]}}, {"type": "Feature", "id": "http://data.archaeology.link/data/ancientports/2344", "name": "Theologos, on the isle of Rhodes  (2344)", "dateprops": [], "properties": {}, "geometry": {"type": "Point", "coordinates": [28.0307, 36.375]}}, {"type": "Feature", "id": "http://data.archaeology.link/data/ancientports/2672", "name": "Cape Malyy Utrish, Malom Utrishe, Small Utrish (2672)", "dateprops": [], "properties": {}, "geometry": {"type": "Point", "coordinates": [37.453, 44.708]}}, {"type": "Feature", "id": "http://data.archaeology.link/data/ancientports/2119", "name": "Isle of Ios, Aniye (2119)", "dateprops": [], "properties": {}, "geometry": {"type": "Point", "coordinates": [25.32905, 36.7227]}}, {"type": "Feature", "id": "http://data.archaeology.link/data/ancientports/3938_1", "name": "Mariout lake-port connected to sea by el-Mexx canal (3938_1)", "dateprops": [], "properties": {}, "geometry": {"type": "Point", "coordinates": [29.8526, 31.146]}}, {"type": "Feature", "id": "http://data.archaeology.link/data/ancientports/3212", "name": "Koyunbaba, ancient quarry (3212)", "dateprops": [], "properties": {}, "geometry": {"type": "Point", "coordinates": [27.2497, 37.0812]}}, {"type": "Feature", "id": "http://data.archaeology.link/data/ancientports/1105", "name": "Porto Cesareo (1105)", "dateprops": [], "properties": {}, "geometry": {"type": "Point", "coordinates": [17.89622, 40.25706]}}, {"type": "Feature", "id": "http://data.archaeology.link/data/ancientports/1261", "name": "Trani (1261)", "dateprops": [], "properties": {}, "geometry": {"type": "Point", "coordinates": [16.42398, 41.28618]}}, {"type": "Feature", "id": "http://data.archaeology.link/data/ancientports/1355", "name": "Roman fort at San Rocco (1355)", "dateprops": [], "properties": {}, "geometry": {"type": "Point", "coordinates": [13.844, 45.606]}}, {"type": "Feature", "id": "http://data.archaeology.link/data/ancientports/3803", "name": "Naysan, Jebel Khayabir, about 15 km SE of al-Qurna and about 40 km NW of Basra, on R Shatt el-Arab (3803)", "dateprops": [], "properties": {}, "geometry": {"type": "Point", "coordinates": [47.578, 30.8947]}}, {"type": "Feature", "id": "http://data.archaeology.link/data/ancientports/1438_2", "name": "Vodice (1438_2)", "dateprops": [], "properties": {}, "geometry": {"type": "Point", "coordinates": [15.7814, 43.7576]}}, {"type": "Feature", "id": "http://data.archaeology.link/data/ancientports/3438", "name": "Al-Mina, Tripoli, with Poidebard's ancient breakwater remains (3438)", "dateprops": [], "properties": {}, "geometry": {"type": "Point", "coordinates": [35.8141, 34.4579]}}, {"type": "Feature", "id": "http://data.archaeology.link/data/ancientports/3784", "name": "Al-Hufuf, is not a port but a major trade city, another option is Tell al-Zayer at Thaj (3784)", "dateprops": [], "properties": {}, "geometry": {"type": "Point", "coordinates": [49.588, 25.373]}}, {"type": "Feature", "id": "http://data.archaeology.link/data/ancientports/3639", "name": "Abu Zahr? 2 km north of al-Khawkhah, Khokha (3639)", "dateprops": [], "properties": {}, "geometry": {"type": "Point", "coordinates": [43.235, 13.827]}}, {"type": "Feature", "id": "http://data.archaeology.link/data/ancientports/2593", "name": "Cape Ai-Todor (2593)", "dateprops": [], "properties": {}, "geometry": {"type": "Point", "coordinates": [34.13, 44.4317]}}, {"type": "Feature", "id": "http://data.archaeology.link/data/ancientports/3118", "name": "G\u00f6mec (3118)", "dateprops": [], "properties": {}, "geometry": {"type": "Point", "coordinates": [26.8056, 39.401]}}, {"type": "Feature", "id": "http://data.archaeology.link/data/ancientports/362", "name": "Cerro del Villar, on estuary of R Guadalorce (362)", "dateprops": [], "properties": {}, "geometry": {"type": "Point", "coordinates": [-4.464, 36.672]}}, {"type": "Feature", "id": "http://data.archaeology.link/data/ancientports/1949", "name": "Kastro, on Chlemoutsi peninsula (1949)", "dateprops": [], "properties": {}, "geometry": {"type": "Point", "coordinates": [21.1357, 37.8865]}}, {"type": "Feature", "id": "http://data.archaeology.link/data/ancientports/1510", "name": "Budva (1510)", "dateprops": [], "properties": {}, "geometry": {"type": "Point", "coordinates": [18.83847, 42.27943]}}, {"type": "Feature", "id": "http://data.archaeology.link/data/ancientports/2412", "name": "Ey\u00fcp, in the Golden Horn (2412)", "dateprops": [], "properties": {}, "geometry": {"type": "Point", "coordinates": [28.937, 41.047]}}, {"type": "Feature", "id": "http://data.archaeology.link/data/ancientports/1256", "name": "Mola di Bari (1256)", "dateprops": [], "properties": {}, "geometry": {"type": "Point", "coordinates": [17.0904, 41.066]}}, {"type": "Feature", "id": "http://data.archaeology.link/data/ancientports/4033", "name": "Tre Scogli in front of modern oil terminal at Ajdabiya (4033)", "dateprops": [], "properties": {}, "geometry": {"type": "Point", "coordinates": [20.0612, 30.9026]}}, {"type": "Feature", "id": "http://data.archaeology.link/data/ancientports/1449", "name": "Veli Porat, near Luka Drvenik, on the isle of Drvenik Veli  (1449)", "dateprops": [], "properties": {}, "geometry": {"type": "Point", "coordinates": [16.14421, 43.4502]}}, {"type": "Feature", "id": "http://data.archaeology.link/data/ancientports/1929", "name": "Kardamyli (1929)", "dateprops": [], "properties": {}, "geometry": {"type": "Point", "coordinates": [22.2344, 36.8842]}}, {"type": "Feature", "id": "http://data.archaeology.link/data/ancientports/1406", "name": "Punta Kriza, in Uvala  Ul, on the isle of Cres (1406)", "dateprops": [], "properties": {}, "geometry": {"type": "Point", "coordinates": [14.50327, 44.64131]}}, {"type": "Feature", "id": "http://data.archaeology.link/data/ancientports/2298", "name": "Skalia, on the isle of Kalymnos  (2298)", "dateprops": [], "properties": {}, "geometry": {"type": "Point", "coordinates": [26.9531, 37.0375]}}, {"type": "Feature", "id": "http://data.archaeology.link/data/ancientports/1557", "name": "near Anoixiatiko (1557)", "dateprops": [], "properties": {}, "geometry": {"type": "Point", "coordinates": [21.15038, 38.9782]}}, {"type": "Feature", "id": "http://data.archaeology.link/data/ancientports/3832_1", "name": "Qeshm island, in front of R Rud-e Shur (3832_1)", "dateprops": [], "properties": {}, "geometry": {"type": "Point", "coordinates": [56.18, 26.89]}}, {"type": "Feature", "id": "http://data.archaeology.link/data/ancientports/3179", "name": "near G\u00fczelcamli (3179)", "dateprops": [], "properties": {}, "geometry": {"type": "Point", "coordinates": [27.22, 37.7096]}}, {"type": "Feature", "id": "http://data.archaeology.link/data/ancientports/2390", "name": "near Gazioglu (2390)", "dateprops": [], "properties": {}, "geometry": {"type": "Point", "coordinates": [27.64004, 40.99034]}}, {"type": "Feature", "id": "http://data.archaeology.link/data/ancientports/2364", "name": "Baklaburnu, north of Bolayir (2364)", "dateprops": [], "properties": {}, "geometry": {"type": "Point", "coordinates": [26.75355, 40.55155]}}, {"type": "Feature", "id": "http://data.archaeology.link/data/ancientports/3369", "name": "near Sazbasi? (3369)", "dateprops": [], "properties": {}, "geometry": {"type": "Point", "coordinates": [34.0721, 36.3889]}}, {"type": "Feature", "id": "http://data.archaeology.link/data/ancientports/2195", "name": "Myrsinia, near Tsilia, on the isle of Lesbos, Lesvos (2195)", "dateprops": [], "properties": {}, "geometry": {"type": "Point", "coordinates": [26.5151, 38.9812]}}, {"type": "Feature", "id": "http://data.archaeology.link/data/ancientports/3943_1", "name": "Ancient settlement (3943_1)", "dateprops": [], "properties": {}, "geometry": {"type": "Point", "coordinates": [29.6112, 30.9683]}}, {"type": "Feature", "id": "http://data.archaeology.link/data/ancientports/1250", "name": "Mezzaluna, Pantanagianni Grande (1250)", "dateprops": [], "properties": {}, "geometry": {"type": "Point", "coordinates": [17.723, 40.752]}}, {"type": "Feature", "id": "http://data.archaeology.link/data/ancientports/4337", "name": "Essaouira, outlet of wadi Ksob (4337)", "dateprops": [], "properties": {}, "geometry": {"type": "Point", "coordinates": [-9.7712, 31.506]}}, {"type": "Feature", "id": "http://data.archaeology.link/data/ancientports/116_3", "name": "Worlebury oppidum (116_3)", "dateprops": [], "properties": {}, "geometry": {"type": "Point", "coordinates": [-2.9864, 51.3576]}}, {"type": "Feature", "id": "http://data.archaeology.link/data/ancientports/3944", "name": "Kom el-Nogous, near Burg el-Arab, Hellenistic canal-port probably located east of Taposiris' east jetty (3944)", "dateprops": [], "properties": {}, "geometry": {"type": "Point", "coordinates": [29.5402, 30.9565]}}, {"type": "Feature", "id": "http://data.archaeology.link/data/ancientports/3141", "name": "island Kus Cenneti, at Uc Tepeler, now connected to the continent, on R Gediz (3141)", "dateprops": [], "properties": {}, "geometry": {"type": "Point", "coordinates": [26.856, 38.5466]}}, {"type": "Feature", "id": "http://data.archaeology.link/data/ancientports/1536", "name": "Butrint, Butronte, in front of Corfu (1536)", "dateprops": [], "properties": {}, "geometry": {"type": "Point", "coordinates": [20.0207, 39.7456]}}, {"type": "Feature", "id": "http://data.archaeology.link/data/ancientports/308_1", "name": "Punta Umbria, on R Rio Tinto (308_1)", "dateprops": [], "properties": {}, "geometry": {"type": "Point", "coordinates": [-6.9634, 37.1876]}}, {"type": "Feature", "id": "http://data.archaeology.link/data/ancientports/3517_1", "name": "Neolithic settlement at Tell Qatifa (3517_1)", "dateprops": [], "properties": {}, "geometry": {"type": "Point", "coordinates": [34.3043, 31.3968]}}, {"type": "Feature", "id": "http://data.archaeology.link/data/ancientports/1951", "name": "Araxos, on R Larisas, Mana (1951)", "dateprops": [], "properties": {}, "geometry": {"type": "Point", "coordinates": [21.403, 38.1564]}}, {"type": "Feature", "id": "http://data.archaeology.link/data/ancientports/2637", "name": "Elizavetovskoe-Gorodishche (2637)", "dateprops": [], "properties": {}, "geometry": {"type": "Point", "coordinates": [39.49106, 47.15981]}}, {"type": "Feature", "id": "http://data.archaeology.link/data/ancientports/3686", "name": "Sharm Dumaygh (3686)", "dateprops": [], "properties": {}, "geometry": {"type": "Point", "coordinates": [36.21932, 26.64281]}}, {"type": "Feature", "id": "http://data.archaeology.link/data/ancientports/237", "name": "Ameal (237)", "dateprops": [], "properties": {}, "geometry": {"type": "Point", "coordinates": [-8.54064, 40.19181]}}, {"type": "Feature", "id": "http://data.archaeology.link/data/ancientports/1618_2", "name": "Agia Triada (1618_2)", "dateprops": [], "properties": {}, "geometry": {"type": "Point", "coordinates": [23.4006, 37.9759]}}, {"type": "Feature", "id": "http://data.archaeology.link/data/ancientports/3800", "name": "very uncertain location north of Bubiyan island (3800)", "dateprops": [], "properties": {}, "geometry": {"type": "Point", "coordinates": [47.96, 30.098]}}, {"type": "Feature", "id": "http://data.archaeology.link/data/ancientports/4044", "name": "about 10 km SW of Brega (4044)", "dateprops": [], "properties": {}, "geometry": {"type": "Point", "coordinates": [19.489, 30.3733]}}, {"type": "Feature", "id": "http://data.archaeology.link/data/ancientports/371", "name": "Cerro de Montecristo, Adra (371)", "dateprops": [], "properties": {}, "geometry": {"type": "Point", "coordinates": [-3.0075, 36.7504]}}, {"type": "Feature", "id": "http://data.archaeology.link/data/ancientports/912", "name": "Fregene (912)", "dateprops": [], "properties": {}, "geometry": {"type": "Point", "coordinates": [12.18341, 41.85306]}}, {"type": "Feature", "id": "http://data.archaeology.link/data/ancientports/2501", "name": "Nufaru (2501)", "dateprops": [], "properties": {}, "geometry": {"type": "Point", "coordinates": [28.91667, 45.15]}}, {"type": "Feature", "id": "http://data.archaeology.link/data/ancientports/525_2", "name": "Oppidum at Camp du Catelier, at Saint Pierre de Varengeville, Duclair, on R Seine (525_2)", "dateprops": [], "properties": {}, "geometry": {"type": "Point", "coordinates": [0.90373, 49.48826]}}, {"type": "Feature", "id": "http://data.archaeology.link/data/ancientports/1082", "name": "Crotone, on R Esaro (1082)", "dateprops": [], "properties": {}, "geometry": {"type": "Point", "coordinates": [17.12635, 39.08554]}}, {"type": "Feature", "id": "http://data.archaeology.link/data/ancientports/3333_1", "name": "T\u00fcrkler, east of Eftalia Ocean Hotel (3333_1)", "dateprops": [], "properties": {}, "geometry": {"type": "Point", "coordinates": [31.8222, 36.5961]}}, {"type": "Feature", "id": "http://data.archaeology.link/data/ancientports/593_1", "name": "La Couture, near Muron, on the marais de la Petite Flandre (593_1)", "dateprops": [], "properties": {}, "geometry": {"type": "Point", "coordinates": [-0.8229, 46.0328]}}, {"type": "Feature", "id": "http://data.archaeology.link/data/ancientports/1645", "name": "silver mines near Lavrio (1645)", "dateprops": [], "properties": {}, "geometry": {"type": "Point", "coordinates": [24.0591, 37.7106]}}, {"type": "Feature", "id": "http://data.archaeology.link/data/ancientports/511_1", "name": "Le Crotoy (511_1)", "dateprops": [], "properties": {}, "geometry": {"type": "Point", "coordinates": [1.6314, 50.2139]}}, {"type": "Feature", "id": "http://data.archaeology.link/data/ancientports/1529_2", "name": "Sopoti (1529_2)", "dateprops": [], "properties": {}, "geometry": {"type": "Point", "coordinates": [19.8529, 40.0448]}}, {"type": "Feature", "id": "http://data.archaeology.link/data/ancientports/3521_2", "name": "Bir Odeib & Bir Themada (3521_2)", "dateprops": [], "properties": {}, "geometry": {"type": "Point", "coordinates": [32.368, 29.674]}}, {"type": "Feature", "id": "http://data.archaeology.link/data/ancientports/1994", "name": "Sivota, on the isle of Lefkada (1994)", "dateprops": [], "properties": {}, "geometry": {"type": "Point", "coordinates": [20.68332, 38.62271]}}, {"type": "Feature", "id": "http://data.archaeology.link/data/ancientports/2411_1", "name": "Probably in Unkapani district, in the Golden Horn (2411_1)", "dateprops": [], "properties": {}, "geometry": {"type": "Point", "coordinates": [28.9623, 41.0218]}}, {"type": "Feature", "id": "http://data.archaeology.link/data/ancientports/1794", "name": "Chrusu, Chrousou, near Paliouri, in the gulf of Kassandra =  Toronic gulf (1794)", "dateprops": [], "properties": {}, "geometry": {"type": "Point", "coordinates": [23.6766, 39.9609]}}, {"type": "Feature", "id": "http://data.archaeology.link/data/ancientports/3137", "name": "Nemrut Limani, south of Aliaga (3137)", "dateprops": [], "properties": {}, "geometry": {"type": "Point", "coordinates": [26.9362, 38.7594]}}, {"type": "Feature", "id": "http://data.archaeology.link/data/ancientports/204", "name": "Fisterra (204)", "dateprops": [], "properties": {}, "geometry": {"type": "Point", "coordinates": [-9.25156, 42.91746]}}, {"type": "Feature", "id": "http://data.archaeology.link/data/ancientports/1502", "name": "Okuklje, on the isle of Mljet (1502)", "dateprops": [], "properties": {}, "geometry": {"type": "Point", "coordinates": [17.67038, 42.72621]}}, {"type": "Feature", "id": "http://data.archaeology.link/data/ancientports/3059", "name": "Limassol Marina, on R Garyllis (3059)", "dateprops": [], "properties": {}, "geometry": {"type": "Point", "coordinates": [33.04, 34.676]}}, {"type": "Feature", "id": "http://data.archaeology.link/data/ancientports/3129", "name": "near Denizk\u00f6y (3129)", "dateprops": [], "properties": {}, "geometry": {"type": "Point", "coordinates": [26.8506, 38.9257]}}, {"type": "Feature", "id": "http://data.archaeology.link/data/ancientports/4050", "name": "As Sidr (4050)", "dateprops": [], "properties": {}, "geometry": {"type": "Point", "coordinates": [18.3735, 30.6303]}}, {"type": "Feature", "id": "http://data.archaeology.link/data/ancientports/49", "name": "Wallsend, on R Tyne (49)", "dateprops": [], "properties": {}, "geometry": {"type": "Point", "coordinates": [-1.53207, 54.98765]}}, {"type": "Feature", "id": "http://data.archaeology.link/data/ancientports/601_2", "name": "Brion, in Marais de Reysson at Saint Germain d'Esteuil (601_2)", "dateprops": [], "properties": {}, "geometry": {"type": "Point", "coordinates": [-0.83653, 45.28115]}}, {"type": "Feature", "id": "http://data.archaeology.link/data/ancientports/2367", "name": "Ece Limani (2367)", "dateprops": [], "properties": {}, "geometry": {"type": "Point", "coordinates": [26.32824, 40.36774]}}, {"type": "Feature", "id": "http://data.archaeology.link/data/ancientports/2232_2", "name": "Kefalas, on the isle of Skiathos  (2232_2)", "dateprops": [], "properties": {}, "geometry": {"type": "Point", "coordinates": [23.51, 39.186]}}, {"type": "Feature", "id": "http://data.archaeology.link/data/ancientports/2631", "name": "several places close to Sukho-Chaltyrskoye (2631)", "dateprops": [], "properties": {}, "geometry": {"type": "Point", "coordinates": [39.49956, 47.2443]}}, {"type": "Feature", "id": "http://data.archaeology.link/data/ancientports/4220_1", "name": "Wadi Daas, Ddas (4220_1)", "dateprops": [], "properties": {}, "geometry": {"type": "Point", "coordinates": [4.812, 36.867]}}, {"type": "Feature", "id": "http://data.archaeology.link/data/ancientports/757", "name": "Arbatax, near Tortoli (757)", "dateprops": [], "properties": {}, "geometry": {"type": "Point", "coordinates": [9.70611, 39.91246]}}, {"type": "Feature", "id": "http://data.archaeology.link/data/ancientports/691", "name": "Anse de La Palud (Port-Cros) (691)", "dateprops": [], "properties": {}, "geometry": {"type": "Point", "coordinates": [6.3874, 43.01355]}}, {"type": "Feature", "id": "http://data.archaeology.link/data/ancientports/3088", "name": "Potamos tou Kampou, west of Gemikonagi (3088)", "dateprops": [], "properties": {}, "geometry": {"type": "Point", "coordinates": [32.812, 35.1398]}}, {"type": "Feature", "id": "http://data.archaeology.link/data/ancientports/4326", "name": "Roman fort at Seguia Faraoun  (4326)", "dateprops": [], "properties": {}, "geometry": {"type": "Point", "coordinates": [-6.887, 33.9834]}}, {"type": "Feature", "id": "http://data.archaeology.link/data/ancientports/1529", "name": "Porto Palermo (1529)", "dateprops": [], "properties": {}, "geometry": {"type": "Point", "coordinates": [19.779, 40.0712]}}, {"type": "Feature", "id": "http://data.archaeology.link/data/ancientports/2358", "name": "on Gala G\u00f6l\u00fc lake? near Enez (2358)", "dateprops": [], "properties": {}, "geometry": {"type": "Point", "coordinates": [26.17, 40.76]}}, {"type": "Feature", "id": "http://data.archaeology.link/data/ancientports/3693", "name": "ash-Sharma (3693)", "dateprops": [], "properties": {}, "geometry": {"type": "Point", "coordinates": [35.266, 28.0209]}}, {"type": "Feature", "id": "http://data.archaeology.link/data/ancientports/4187", "name": "Ras ez Zebib  (4187)", "dateprops": [], "properties": {}, "geometry": {"type": "Point", "coordinates": [10.06895, 37.26367]}}, {"type": "Feature", "id": "http://data.archaeology.link/data/ancientports/104_3", "name": "Yealmpton (104_3)", "dateprops": [], "properties": {}, "geometry": {"type": "Point", "coordinates": [-3.998, 50.348]}}, {"type": "Feature", "id": "http://data.archaeology.link/data/ancientports/806", "name": "Cala Bitta (806)", "dateprops": [], "properties": {}, "geometry": {"type": "Point", "coordinates": [9.47091, 41.12562]}}, {"type": "Feature", "id": "http://data.archaeology.link/data/ancientports/84_3", "name": "The Caburn oppidum (84_3)", "dateprops": [], "properties": {}, "geometry": {"type": "Point", "coordinates": [0.051, 50.8617]}}, {"type": "Feature", "id": "http://data.archaeology.link/data/ancientports/1240", "name": "Isle of Linosa (1240)", "dateprops": [], "properties": {}, "geometry": {"type": "Point", "coordinates": [12.86931, 35.86103]}}, {"type": "Feature", "id": "http://data.archaeology.link/data/ancientports/2078_2", "name": "Sikidi tower, on the isle of Sifnos, Yavuzca (2078_2)", "dateprops": [], "properties": {}, "geometry": {"type": "Point", "coordinates": [24.6977, 36.9293]}}, {"type": "Feature", "id": "http://data.archaeology.link/data/ancientports/3152", "name": "Ildir, in front of Chios (3152)", "dateprops": [], "properties": {}, "geometry": {"type": "Point", "coordinates": [26.4811, 38.3808]}}, {"type": "Feature", "id": "http://data.archaeology.link/data/ancientports/2534", "name": "Belyayevka, on R Dniester Liman (2534)", "dateprops": [], "properties": {}, "geometry": {"type": "Point", "coordinates": [30.21464, 46.47289]}}, {"type": "Feature", "id": "http://data.archaeology.link/data/ancientports/280", "name": "Vau, Alvor (280)", "dateprops": [], "properties": {}, "geometry": {"type": "Point", "coordinates": [-8.558, 37.1187]}}, {"type": "Feature", "id": "http://data.archaeology.link/data/ancientports/190_2", "name": "Castro de Mohias (190_2)", "dateprops": [], "properties": {}, "geometry": {"type": "Point", "coordinates": [-6.7473, 43.5496]}}, {"type": "Feature", "id": "http://data.archaeology.link/data/ancientports/2948", "name": "Almirida (2948)", "dateprops": [], "properties": {}, "geometry": {"type": "Point", "coordinates": [24.8784, 35.4078]}}, {"type": "Feature", "id": "http://data.archaeology.link/data/ancientports/353_1", "name": "Casa de Montilla, with BA settlement, on the estuary of R Guadiaro (353_1)", "dateprops": [], "properties": {}, "geometry": {"type": "Point", "coordinates": [-5.286, 36.2985]}}, {"type": "Feature", "id": "http://data.archaeology.link/data/ancientports/2104", "name": "Livadi, on Isle of Iraklia, Heraklia (2104)", "dateprops": [], "properties": {}, "geometry": {"type": "Point", "coordinates": [25.4711, 36.8496]}}, {"type": "Feature", "id": "http://data.archaeology.link/data/ancientports/1620", "name": "Elefsina (1620)", "dateprops": [], "properties": {}, "geometry": {"type": "Point", "coordinates": [23.5372, 38.0412]}}, {"type": "Feature", "id": "http://data.archaeology.link/data/ancientports/3052", "name": "Hala Sultan Tekke (3052)", "dateprops": [], "properties": {}, "geometry": {"type": "Point", "coordinates": [33.6047, 34.8874]}}, {"type": "Feature", "id": "http://data.archaeology.link/data/ancientports/2662", "name": "Tatarskiy (2662)", "dateprops": [], "properties": {}, "geometry": {"type": "Point", "coordinates": [36.93, 45.327]}}, {"type": "Feature", "id": "http://data.archaeology.link/data/ancientports/1248", "name": "Canale Apani, at Torre Rossa  (1248)", "dateprops": [], "properties": {}, "geometry": {"type": "Point", "coordinates": [17.8705, 40.6875]}}, {"type": "Feature", "id": "http://data.archaeology.link/data/ancientports/2971", "name": "due south of the isle of Psira (2971)", "dateprops": [], "properties": {}, "geometry": {"type": "Point", "coordinates": [25.8598, 35.1523]}}, {"type": "Feature", "id": "http://data.archaeology.link/data/ancientports/3565", "name": "Marsa Tarafi (3565)", "dateprops": [], "properties": {}, "geometry": {"type": "Point", "coordinates": [34.80896, 25.20505]}}, {"type": "Feature", "id": "http://data.archaeology.link/data/ancientports/191_1", "name": "Castro de Meirengos, and many other castros between this one and San Cyprien (191_1)", "dateprops": [], "properties": {}, "geometry": {"type": "Point", "coordinates": [-7.1195, 43.5539]}}, {"type": "Feature", "id": "http://data.archaeology.link/data/ancientports/1896", "name": "Port Poulithra (1896)", "dateprops": [], "properties": {}, "geometry": {"type": "Point", "coordinates": [22.9051, 37.1133]}}, {"type": "Feature", "id": "http://data.archaeology.link/data/ancientports/3723", "name": "Hadiboh on Socotra island (3723)", "dateprops": [], "properties": {}, "geometry": {"type": "Point", "coordinates": [54.0228, 12.65975]}}, {"type": "Feature", "id": "http://data.archaeology.link/data/ancientports/197_1", "name": "Longaras, at Gandara beach, and 3 castros on this Ria de Ferrol (197_1)", "dateprops": [], "properties": {}, "geometry": {"type": "Point", "coordinates": [-8.1842, 43.4927]}}, {"type": "Feature", "id": "http://data.archaeology.link/data/ancientports/3859_1", "name": "Ratto Kot? 4-5th c. AD fortress, possibly older. Other possible place: Jaki Bandar (Medieval Lahori Bandar, 24.6300\u00b0N, 67.3698\u00b0E) (3859_1)", "dateprops": [], "properties": {}, "geometry": {"type": "Point", "coordinates": [67.234, 24.7472]}}, {"type": "Feature", "id": "http://data.archaeology.link/data/ancientports/761", "name": "Santa Maria di Villaputzu, near Muravera, on R Flumendosa (761)", "dateprops": [], "properties": {}, "geometry": {"type": "Point", "coordinates": [9.63161, 39.42563]}}, {"type": "Feature", "id": "http://data.archaeology.link/data/ancientports/6", "name": "in The Netherlands between R Vidrus (R Oude Rijn?) and R Amisius (R Eems), possibly at Hoge Berg near Den Burg, on the isle of Texel that was still connected to the mainland (6)", "dateprops": [], "properties": {}, "geometry": {"type": "Point", "coordinates": [4.82515, 53.04149]}}, {"type": "Feature", "id": "http://data.archaeology.link/data/ancientports/1174", "name": "Punta Alga, at Marsala (1174)", "dateprops": [], "properties": {}, "geometry": {"type": "Point", "coordinates": [12.44334, 37.8124]}}, {"type": "Feature", "id": "http://data.archaeology.link/data/ancientports/48_1", "name": "Kippy Heugh oppidum (48_1)", "dateprops": [], "properties": {}, "geometry": {"type": "Point", "coordinates": [-1.8011, 55.6053]}}, {"type": "Feature", "id": "http://data.archaeology.link/data/ancientports/1592_1", "name": "Antirion, Antirrion (1592_1)", "dateprops": [], "properties": {}, "geometry": {"type": "Point", "coordinates": [21.7659, 38.3289]}}, {"type": "Feature", "id": "http://data.archaeology.link/data/ancientports/590", "name": "Oppidum at Chatelet, with possible port at La Meule, 2.5 km east, on \u00eele d'Yeu island (590)", "dateprops": [], "properties": {}, "geometry": {"type": "Point", "coordinates": [-2.37954, 46.70243]}}, {"type": "Feature", "id": "http://data.archaeology.link/data/ancientports/2676", "name": "Novorossiysk, on R Tsemes (2676)", "dateprops": [], "properties": {}, "geometry": {"type": "Point", "coordinates": [37.7938, 44.72333]}}, {"type": "Feature", "id": "http://data.archaeology.link/data/ancientports/4299", "name": "Er Rmel-near the modern port of Tanger Med, possible fish processing factory (4299)", "dateprops": [], "properties": {}, "geometry": {"type": "Point", "coordinates": [-5.50475, 35.88344]}}, {"type": "Feature", "id": "http://data.archaeology.link/data/ancientports/2484", "name": "Ovidiu (2484)", "dateprops": [], "properties": {}, "geometry": {"type": "Point", "coordinates": [28.567, 44.262]}}, {"type": "Feature", "id": "http://data.archaeology.link/data/ancientports/3902", "name": "Tell el-Moqdam (3902)", "dateprops": [], "properties": {}, "geometry": {"type": "Point", "coordinates": [31.3556, 30.683]}}, {"type": "Feature", "id": "http://data.archaeology.link/data/ancientports/2248", "name": "Psara, on the isle of Psara (2248)", "dateprops": [], "properties": {}, "geometry": {"type": "Point", "coordinates": [25.5626, 38.541]}}, {"type": "Feature", "id": "http://data.archaeology.link/data/ancientports/162_1", "name": "Borness Batteries oppidum, near Brighouse Bay (162_1)", "dateprops": [], "properties": {}, "geometry": {"type": "Point", "coordinates": [-4.147, 54.7777]}}, {"type": "Feature", "id": "http://data.archaeology.link/data/ancientports/2218", "name": "Roman fort at Selles, on the isle of Lesbos, Lesvos  (2218)", "dateprops": [], "properties": {}, "geometry": {"type": "Point", "coordinates": [26.1366, 39.3105]}}, {"type": "Feature", "id": "http://data.archaeology.link/data/ancientports/3095", "name": "Melandryna  (3095)", "dateprops": [], "properties": {}, "geometry": {"type": "Point", "coordinates": [33.783, 35.4067]}}, {"type": "Feature", "id": "http://data.archaeology.link/data/ancientports/2806", "name": "Cavusagzi (2806)", "dateprops": [], "properties": {}, "geometry": {"type": "Point", "coordinates": [31.60422, 41.37887]}}, {"type": "Feature", "id": "http://data.archaeology.link/data/ancientports/3391_2", "name": "Sirkeli could possibly be reached by sea ships, on R Ceyhan (3391_2)", "dateprops": [], "properties": {}, "geometry": {"type": "Point", "coordinates": [35.744, 37.003]}}, {"type": "Feature", "id": "http://data.archaeology.link/data/ancientports/109_6", "name": "Wadebridge, on R Camel (109_6)", "dateprops": [], "properties": {}, "geometry": {"type": "Point", "coordinates": [-4.8354, 50.5175]}}, {"type": "Feature", "id": "http://data.archaeology.link/data/ancientports/1814", "name": "Palaiopyrgos, near Pyrgos Chiliadous (1814)", "dateprops": [], "properties": {}, "geometry": {"type": "Point", "coordinates": [23.7939, 40.3465]}}, {"type": "Feature", "id": "http://data.archaeology.link/data/ancientports/3716", "name": "Barawa, Brava? (3716)", "dateprops": [], "properties": {},