{"type": "FeatureCollection", "id": "http://data.archaeology.link/data/ancientports/Harbour_collection", "name": "Harbour_collection", "features": [{"type": "Feature", "id": "http://data.archaeology.link/data/ancientports/471", "label": "Cova des Moros (471)", "dateprops": [], "properties": {}, "geometry": {"type": "Point", "coordinates": [3.30353, 39.50262]}}, {"type": "Feature", "id": "http://data.archaeology.link/data/ancientports/3715_2", "label": "Kismayo, Kismaayo, near Goobweyn on R Juba (3715_2)", "dateprops": [], "properties": {}, "geometry": {"type": "Point", "coordinates": [42.54, -0.38]}}, {"type": "Feature", "id": "http://data.archaeology.link/data/ancientports/414", "label": "Vinarragell, on R Mijares, R Millars (414)", "dateprops": [], "properties": {}, "geometry": {"type": "Point", "coordinates": [-0.0472, 39.9232]}}, {"type": "Feature", "id": "http://data.archaeology.link/data/ancientports/488", "label": "Mahon (488)", "dateprops": [], "properties": {}, "geometry": {"type": "Point", "coordinates": [4.2801, 39.88788]}}, {"type": "Feature", "id": "http://data.archaeology.link/data/ancientports/1084", "label": "Ciro Marina (1084)", "dateprops": [], "properties": {}, "geometry": {"type": "Point", "coordinates": [17.14086, 39.37015]}}, {"type": "Feature", "id": "http://data.archaeology.link/data/ancientports/3732", "label": "Heis, Xiis, with anchorage at Salweyn behind Heis island. Other possible locations for Punt are Adulis and Opone (3732)", "dateprops": [], "properties": {}, "geometry": {"type": "Point", "coordinates": [46.9295, 10.914]}}, {"type": "Feature", "id": "http://data.archaeology.link/data/ancientports/1087", "label": "Cariati (1087)", "dateprops": [], "properties": {}, "geometry": {"type": "Point", "coordinates": [16.9617, 39.496]}}, {"type": "Feature", "id": "http://data.archaeology.link/data/ancientports/1644_1", "label": "Lavrio Olympic Marina (1644_1)", "dateprops": [], "properties": {}, "geometry": {"type": "Point", "coordinates": [24.0575, 37.6957]}}, {"type": "Feature", "id": "http://data.archaeology.link/data/ancientports/3277", "label": "Isle of Kizil Adasi (3277)", "dateprops": [], "properties": {}, "geometry": {"type": "Point", "coordinates": [29.04711, 36.65969]}}, {"type": "Feature", "id": "http://data.archaeology.link/data/ancientports/4037", "label": "30 km NE of New Brega? (4037)", "dateprops": [], "properties": {}, "geometry": {"type": "Point", "coordinates": [19.934, 30.7035]}}, {"type": "Feature", "id": "http://data.archaeology.link/data/ancientports/4291", "label": "Los Castillejos, on wadi Fnideq, possible fish processing factory (4291)", "dateprops": [], "properties": {}, "geometry": {"type": "Point", "coordinates": [-5.35539, 35.84619]}}, {"type": "Feature", "id": "http://data.archaeology.link/data/ancientports/3657", "label": "Khor al-Wahlan? near al-Madaya, Monfreid's Medy (3657)", "dateprops": [], "properties": {}, "geometry": {"type": "Point", "coordinates": [42.69818, 16.73516]}}, {"type": "Feature", "id": "http://data.archaeology.link/data/ancientports/1908", "label": "Elafonisos, Elafos, Vigklafia, with quarries, with submerged BA settlement (1908)", "dateprops": [], "properties": {}, "geometry": {"type": "Point", "coordinates": [22.98819, 36.51668]}}, {"type": "Feature", "id": "http://data.archaeology.link/data/ancientports/2121", "label": "Plakotos, on the isle of Ios (2121)", "dateprops": [], "properties": {}, "geometry": {"type": "Point", "coordinates": [25.28948, 36.78688]}}, {"type": "Feature", "id": "http://data.archaeology.link/data/ancientports/3862_2", "label": "Ghogha, Gundigar, on Saurashtra peninsula, west of Piram Bet island, in Gulf of Khambhat (3862_2)", "dateprops": [], "properties": {}, "geometry": {"type": "Point", "coordinates": [72.282, 21.69]}}, {"type": "Feature", "id": "http://data.archaeology.link/data/ancientports/3909", "label": "Tell Fara'un, near Ibtu (3909)", "dateprops": [], "properties": {}, "geometry": {"type": "Point", "coordinates": [30.74222, 31.19556]}}, {"type": "Feature", "id": "http://data.archaeology.link/data/ancientports/170_1", "label": "Dunadd, on R Add (170_1)", "dateprops": [], "properties": {}, "geometry": {"type": "Point", "coordinates": [-5.47881, 56.08567]}}, {"type": "Feature", "id": "http://data.archaeology.link/data/ancientports/2148", "label": "Vlychada, on the isle of Santorini-Thera, with 360 m breakwater acc. to Lehmann-Hartleben (2148)", "dateprops": [], "properties": {}, "geometry": {"type": "Point", "coordinates": [25.43753, 36.33311]}}, {"type": "Feature", "id": "http://data.archaeology.link/data/ancientports/521", "label": "Harfleur, on R Lezarde (521)", "dateprops": [], "properties": {}, "geometry": {"type": "Point", "coordinates": [0.20923, 49.50258]}}, {"type": "Feature", "id": "http://data.archaeology.link/data/ancientports/2949", "label": "Agia Pelagia (2949)", "dateprops": [], "properties": {}, "geometry": {"type": "Point", "coordinates": [25.0203, 35.40815]}}, {"type": "Feature", "id": "http://data.archaeology.link/data/ancientports/4252", "label": "Kherbet Ramoul (4252)", "dateprops": [], "properties": {}, "geometry": {"type": "Point", "coordinates": [0.6888, 36.3363]}}, {"type": "Feature", "id": "http://data.archaeology.link/data/ancientports/2570", "label": "Chornomors\u2019ke, in Achmechet bay (2570)", "dateprops": [], "properties": {}, "geometry": {"type": "Point", "coordinates": [32.71403, 45.51763]}}, {"type": "Feature", "id": "http://data.archaeology.link/data/ancientports/334", "label": "El Gallinero, Puerto Real shipyard in the Bay of Cadix, east of R San Pedro (334)", "dateprops": [], "properties": {}, "geometry": {"type": "Point", "coordinates": [-6.1998, 36.53011]}}, {"type": "Feature", "id": "http://data.archaeology.link/data/ancientports/189", "label": "Roman fort at El Castillo de San Mart\u00edn, Soto del Barco, on Ria Nalon-Narcea (189)", "dateprops": [], "properties": {}, "geometry": {"type": "Point", "coordinates": [-6.07571, 43.54217]}}, {"type": "Feature", "id": "http://data.archaeology.link/data/ancientports/2270", "label": "Roman fort on the isle of Samiopoula (2270)", "dateprops": [], "properties": {}, "geometry": {"type": "Point", "coordinates": [26.792, 37.631]}}, {"type": "Feature", "id": "http://data.archaeology.link/data/ancientports/3856", "label": "unlocated anchorage in open sea in front of the shore, possibly at Liari (now inland) near R Titian, Alexandria is possibly located at Uthal on R Kharari? (3856)", "dateprops": [], "properties": {}, "geometry": {"type": "Point", "coordinates": [66.49, 25.89]}}, {"type": "Feature", "id": "http://data.archaeology.link/data/ancientports/4083", "label": "20 km west of Gaphara (4083)", "dateprops": [], "properties": {}, "geometry": {"type": "Point", "coordinates": [13.59947, 32.79614]}}, {"type": "Feature", "id": "http://data.archaeology.link/data/ancientports/1689", "label": "Lamia  (1689)", "dateprops": [], "properties": {}, "geometry": {"type": "Point", "coordinates": [22.4351, 38.9045]}}, {"type": "Feature", "id": "http://data.archaeology.link/data/ancientports/3817", "label": "Bushir, Bushehr (3817)", "dateprops": [], "properties": {}, "geometry": {"type": "Point", "coordinates": [50.836, 28.9935]}}, {"type": "Feature", "id": "http://data.archaeology.link/data/ancientports/3659_3", "label": "Khor Nahud (3659_3)", "dateprops": [], "properties": {}, "geometry": {"type": "Point", "coordinates": [41.504, 18.263]}}, {"type": "Feature", "id": "http://data.archaeology.link/data/ancientports/4164", "label": "Fish tank, about 2.5 km SW of modern port of Sidi Daoud-Thonara (4164)", "dateprops": [], "properties": {}, "geometry": {"type": "Point", "coordinates": [10.89455, 37.00233]}}, {"type": "Feature", "id": "http://data.archaeology.link/data/ancientports/1807", "label": "Sarti (1807)", "dateprops": [], "properties": {}, "geometry": {"type": "Point", "coordinates": [23.982, 40.0876]}}, {"type": "Feature", "id": "http://data.archaeology.link/data/ancientports/1695", "label": "Loutra Edipsou (1695)", "dateprops": [], "properties": {}, "geometry": {"type": "Point", "coordinates": [23.04919, 38.84731]}}, {"type": "Feature", "id": "http://data.archaeology.link/data/ancientports/1871", "label": "near Trezen, Trezene? (1871)", "dateprops": [], "properties": {}, "geometry": {"type": "Point", "coordinates": [23.39423, 37.51623]}}, {"type": "Feature", "id": "http://data.archaeology.link/data/ancientports/2672", "label": "Cape Malyy Utrish, Malom Utrishe, Small Utrish (2672)", "dateprops": [], "properties": {}, "geometry": {"type": "Point", "coordinates": [37.453, 44.708]}}, {"type": "Feature", "id": "http://data.archaeology.link/data/ancientports/3413", "label": "Mina el-Fasri, Fasuri (3413)", "dateprops": [], "properties": {}, "geometry": {"type": "Point", "coordinates": [35.7894, 35.682]}}, {"type": "Feature", "id": "http://data.archaeology.link/data/ancientports/1913", "label": "Kokkinia (1913)", "dateprops": [], "properties": {}, "geometry": {"type": "Point", "coordinates": [22.786, 36.7939]}}, {"type": "Feature", "id": "http://data.archaeology.link/data/ancientports/3926", "label": "Kom Tuman (3926)", "dateprops": [], "properties": {}, "geometry": {"type": "Point", "coordinates": [31.2548, 29.8621]}}, {"type": "Feature", "id": "http://data.archaeology.link/data/ancientports/3170", "label": "Ayasoluk hill, near Selcuk, on R K\u00fcc\u00fck Menderes (3170)", "dateprops": [], "properties": {}, "geometry": {"type": "Point", "coordinates": [27.3644, 37.95]}}, {"type": "Feature", "id": "http://data.archaeology.link/data/ancientports/67", "label": "Walton Castle, north of Felixstowe, now submerged offshore  (67)", "dateprops": [], "properties": {}, "geometry": {"type": "Point", "coordinates": [1.38, 51.972]}}, {"type": "Feature", "id": "http://data.archaeology.link/data/ancientports/2170_1", "label": "Roman kilns at Keramidaria, on the isle of Samothrace (2170_1)", "dateprops": [], "properties": {}, "geometry": {"type": "Point", "coordinates": [25.5897, 40.5017]}}, {"type": "Feature", "id": "http://data.archaeology.link/data/ancientports/3397", "label": "Payas, on R Payas (3397)", "dateprops": [], "properties": {}, "geometry": {"type": "Point", "coordinates": [36.201, 36.754]}}, {"type": "Feature", "id": "http://data.archaeology.link/data/ancientports/3267", "label": "G\u00f6kgemile K\u00f6y\u00fc, inside Gungormez Limani? (3267)", "dateprops": [], "properties": {}, "geometry": {"type": "Point", "coordinates": [28.8511, 36.637]}}, {"type": "Feature", "id": "http://data.archaeology.link/data/ancientports/1664", "label": "Paralia Avlidos (1664)", "dateprops": [], "properties": {}, "geometry": {"type": "Point", "coordinates": [23.6266, 38.3843]}}, {"type": "Feature", "id": "http://data.archaeology.link/data/ancientports/3622", "label": "Howakil bay, Hauakil bay, near Ghelaelo, with Harena, Arena island (3622)", "dateprops": [], "properties": {}, "geometry": {"type": "Point", "coordinates": [40.065, 15.19]}}, {"type": "Feature", "id": "http://data.archaeology.link/data/ancientports/3741", "label": "Aden (3741)", "dateprops": [], "properties": {}, "geometry": {"type": "Point", "coordinates": [45.00549, 12.8018]}}, {"type": "Feature", "id": "http://data.archaeology.link/data/ancientports/820", "label": "Varigotti (820)", "dateprops": [], "properties": {}, "geometry": {"type": "Point", "coordinates": [8.396, 44.18]}}, {"type": "Feature", "id": "http://data.archaeology.link/data/ancientports/2938", "label": "Soudha (2938)", "dateprops": [], "properties": {}, "geometry": {"type": "Point", "coordinates": [24.07931, 35.49736]}}, {"type": "Feature", "id": "http://data.archaeology.link/data/ancientports/1511_1", "label": "Bigovica (1511_1)", "dateprops": [], "properties": {}, "geometry": {"type": "Point", "coordinates": [19.0854, 42.0768]}}, {"type": "Feature", "id": "http://data.archaeology.link/data/ancientports/184_2", "label": "La Isla, near Colunga (184_2)", "dateprops": [], "properties": {}, "geometry": {"type": "Point", "coordinates": [-5.224, 43.4802]}}, {"type": "Feature", "id": "http://data.archaeology.link/data/ancientports/1768", "label": "Leptokarya? (1768)", "dateprops": [], "properties": {}, "geometry": {"type": "Point", "coordinates": [22.53438, 40.02458]}}, {"type": "Feature", "id": "http://data.archaeology.link/data/ancientports/112_1", "label": "Hillsborough oppidum, near Ilfracombe (112_1)", "dateprops": [], "properties": {}, "geometry": {"type": "Point", "coordinates": [-4.103, 51.21]}}, {"type": "Feature", "id": "http://data.archaeology.link/data/ancientports/1710_1", "label": "Plakari  (1710_1)", "dateprops": [], "properties": {}, "geometry": {"type": "Point", "coordinates": [24.3917, 38.0086]}}, {"type": "Feature", "id": "http://data.archaeology.link/data/ancientports/3859_4", "label": "Tharro Hill, Kervran suggests that Bibacta insula and Cilluta insula are both located here (3859_4)", "dateprops": [], "properties": {}, "geometry": {"type": "Point", "coordinates": [67.7427, 24.7295]}}, {"type": "Feature", "id": "http://data.archaeology.link/data/ancientports/3411", "label": "Kesab bay at the border between Turkey and Syria, at the toe of mount el-Aqra (3411)", "dateprops": [], "properties": {}, "geometry": {"type": "Point", "coordinates": [35.82701, 35.7275]}}, {"type": "Feature", "id": "http://data.archaeology.link/data/ancientports/3800", "label": "very uncertain location north of Bubiyan island (3800)", "dateprops": [], "properties": {}, "geometry": {"type": "Point", "coordinates": [47.96, 30.098]}}, {"type": "Feature", "id": "http://data.archaeology.link/data/ancientports/3287", "label": "Kumluova, on R Esin Cayi (3287)", "dateprops": [], "properties": {}, "geometry": {"type": "Point", "coordinates": [29.2887, 36.3312]}}, {"type": "Feature", "id": "http://data.archaeology.link/data/ancientports/4048", "label": "Ras al-A\u2019ali, border between Cyrenaica and Africa, near fort of Bir Umm el-Garanigh (4048)", "dateprops": [], "properties": {}, "geometry": {"type": "Point", "coordinates": [18.79615, 30.37747]}}, {"type": "Feature", "id": "http://data.archaeology.link/data/ancientports/1222", "label": "Kortin hill at Marsa, Ta'Cejlu (1222)", "dateprops": [], "properties": {}, "geometry": {"type": "Point", "coordinates": [14.50084, 35.88072]}}, {"type": "Feature", "id": "http://data.archaeology.link/data/ancientports/2266", "label": "Daskalopetra, on the isle of Chios (2266)", "dateprops": [], "properties": {}, "geometry": {"type": "Point", "coordinates": [26.134, 38.4222]}}, {"type": "Feature", "id": "http://data.archaeology.link/data/ancientports/3819", "label": "Bay of Halileh, north of Delvar (3819)", "dateprops": [], "properties": {}, "geometry": {"type": "Point", "coordinates": [50.99449, 28.81763]}}, {"type": "Feature", "id": "http://data.archaeology.link/data/ancientports/2906", "label": "near cardak (2906)", "dateprops": [], "properties": {}, "geometry": {"type": "Point", "coordinates": [26.7344, 40.3783]}}, {"type": "Feature", "id": "http://data.archaeology.link/data/ancientports/511_2", "label": "Saint Valerie sur Somme, famous for being the departure port of William the Conqueror in 1066 (511_2)", "dateprops": [], "properties": {}, "geometry": {"type": "Point", "coordinates": [1.6475, 50.1808]}}, {"type": "Feature", "id": "http://data.archaeology.link/data/ancientports/1417", "label": "Sveta Trojica (1417)", "dateprops": [], "properties": {}, "geometry": {"type": "Point", "coordinates": [15.3742, 44.3277]}}, {"type": "Feature", "id": "http://data.archaeology.link/data/ancientports/2360_2", "label": "Ibrice Liman, south of Mecidiye (2360_2)", "dateprops": [], "properties": {}, "geometry": {"type": "Point", "coordinates": [26.542, 40.6039]}}, {"type": "Feature", "id": "http://data.archaeology.link/data/ancientports/1312", "label": "Rubicon, near Villamarina (1312)", "dateprops": [], "properties": {}, "geometry": {"type": "Point", "coordinates": [12.44686, 44.1717]}}, {"type": "Feature", "id": "http://data.archaeology.link/data/ancientports/560_3", "label": "Pentrez, near Saint Nic, large fish processing factory (560_3)", "dateprops": [], "properties": {}, "geometry": {"type": "Point", "coordinates": [-4.3069, 48.1963]}}, {"type": "Feature", "id": "http://data.archaeology.link/data/ancientports/3809_1", "label": "Tell Muhammad? at confluence of R Tigris and R Diyala (3809_1)", "dateprops": [], "properties": {}, "geometry": {"type": "Point", "coordinates": [44.48289, 33.29363]}}, {"type": "Feature", "id": "http://data.archaeology.link/data/ancientports/978_1", "label": "Isle of Procida (978_1)", "dateprops": [], "properties": {}, "geometry": {"type": "Point", "coordinates": [14.01673, 40.75907]}}, {"type": "Feature", "id": "http://data.archaeology.link/data/ancientports/3806_3", "label": "Tel Abu Shahrain (3806_3)", "dateprops": [], "properties": {}, "geometry": {"type": "Point", "coordinates": [45.9959, 30.8169]}}, {"type": "Feature", "id": "http://data.archaeology.link/data/ancientports/819", "label": "Finale Ligure (819)", "dateprops": [], "properties": {}, "geometry": {"type": "Point", "coordinates": [8.342, 44.164]}}, {"type": "Feature", "id": "http://data.archaeology.link/data/ancientports/3050", "label": "Pyla, near Koutsopetria & Kokkinokremos / krenos (3050)", "dateprops": [], "properties": {}, "geometry": {"type": "Point", "coordinates": [33.7151, 34.9902]}}, {"type": "Feature", "id": "http://data.archaeology.link/data/ancientports/116_1", "label": "Brent Knoll oppidum (116_1)", "dateprops": [], "properties": {}, "geometry": {"type": "Point", "coordinates": [-2.9456, 51.254]}}, {"type": "Feature", "id": "http://data.archaeology.link/data/ancientports/116_3", "label": "Worlebury oppidum (116_3)", "dateprops": [], "properties": {}, "geometry": {"type": "Point", "coordinates": [-2.9864, 51.3576]}}, {"type": "Feature", "id": "http://data.archaeology.link/data/ancientports/1815", "label": "Develiki, near Gomati (1815)", "dateprops": [], "properties": {}, "geometry": {"type": "Point", "coordinates": [23.83, 40.3646]}}, {"type": "Feature", "id": "http://data.archaeology.link/data/ancientports/2082", "label": "Isle of Antiparos, Andibara (2082)", "dateprops": [], "properties": {}, "geometry": {"type": "Point", "coordinates": [25.04511, 37.00063]}}, {"type": "Feature", "id": "http://data.archaeology.link/data/ancientports/2325", "label": "Kolympia, on the isle of Rhodes  (2325)", "dateprops": [], "properties": {}, "geometry": {"type": "Point", "coordinates": [28.16936, 36.24638]}}, {"type": "Feature", "id": "http://data.archaeology.link/data/ancientports/815", "label": "Riva Ligure, on R Taggia (815)", "dateprops": [], "properties": {}, "geometry": {"type": "Point", "coordinates": [7.8691, 43.83037]}}, {"type": "Feature", "id": "http://data.archaeology.link/data/ancientports/1100", "label": "Tarento, Taranto, Scoglio del Tonno (1100)", "dateprops": [], "properties": {}, "geometry": {"type": "Point", "coordinates": [17.22814, 40.47203]}}, {"type": "Feature", "id": "http://data.archaeology.link/data/ancientports/1631", "label": "Phaleron, Paleo Faliro (1631)", "dateprops": [], "properties": {}, "geometry": {"type": "Point", "coordinates": [23.6839, 37.9308]}}, {"type": "Feature", "id": "http://data.archaeology.link/data/ancientports/2747", "label": "Aziziye? near Yason Burnu (2747)", "dateprops": [], "properties": {}, "geometry": {"type": "Point", "coordinates": [37.705, 41.116]}}, {"type": "Feature", "id": "http://data.archaeology.link/data/ancientports/2479_1", "label": "Cascaia, Hagieni (2479_1)", "dateprops": [], "properties": {}, "geometry": {"type": "Point", "coordinates": [28.4558, 43.8035]}}, {"type": "Feature", "id": "http://data.archaeology.link/data/ancientports/3784", "label": "Al-Hufuf, is not a port but a major trade city, another option is Tell al-Zayer at Thaj (3784)", "dateprops": [], "properties": {}, "geometry": {"type": "Point", "coordinates": [49.588, 25.373]}}, {"type": "Feature", "id": "http://data.archaeology.link/data/ancientports/133", "label": "Castell Odo oppidum, at Aberdaron (133)", "dateprops": [], "properties": {}, "geometry": {"type": "Point", "coordinates": [52.82319, -4.69208]}}, {"type": "Feature", "id": "http://data.archaeology.link/data/ancientports/1975", "label": "Limin Gouvion, Gouvia, on Corfu, with large Venetian shipyard (1975)", "dateprops": [], "properties": {}, "geometry": {"type": "Point", "coordinates": [19.84904, 39.65411]}}, {"type": "Feature", "id": "http://data.archaeology.link/data/ancientports/2780", "label": "Caylioglu, near Cape Usta (2780)", "dateprops": [], "properties": {}, "geometry": {"type": "Point", "coordinates": [34.5012, 41.965]}}, {"type": "Feature", "id": "http://data.archaeology.link/data/ancientports/3947", "label": "el-Imayid, about 15 km east of el-Alamein (3947)", "dateprops": [], "properties": {}, "geometry": {"type": "Point", "coordinates": [29.1786, 30.8343]}}, {"type": "Feature", "id": "http://data.archaeology.link/data/ancientports/1627_2", "label": "Le Piree, The Piraeus (1627_2)", "dateprops": [], "properties": {}, "geometry": {"type": "Point", "coordinates": [23.637, 37.949]}}, {"type": "Feature", "id": "http://data.archaeology.link/data/ancientports/126", "label": "Carmarthen, on R Towy (126)", "dateprops": [], "properties": {}, "geometry": {"type": "Point", "coordinates": [-4.3035, 51.85505]}}, {"type": "Feature", "id": "http://data.archaeology.link/data/ancientports/171_18", "label": "Lyles Hill, Ballymartin, oppidum (171_18)", "dateprops": [], "properties": {}, "geometry": {"type": "Point", "coordinates": [-6.0662, 54.6787]}}, {"type": "Feature", "id": "http://data.archaeology.link/data/ancientports/400", "label": "Torre de Sant Josep (400)", "dateprops": [], "properties": {}, "geometry": {"type": "Point", "coordinates": [-0.19722, 38.5143]}}, {"type": "Feature", "id": "http://data.archaeology.link/data/ancientports/1505", "label": "Dubrovnik (1505)", "dateprops": [], "properties": {}, "geometry": {"type": "Point", "coordinates": [18.1122, 42.6406]}}, {"type": "Feature", "id": "http://data.archaeology.link/data/ancientports/1370_1", "label": "Kupanja Uvala, large fish tank (1370_1)", "dateprops": [], "properties": {}, "geometry": {"type": "Point", "coordinates": [13.5923, 45.2828]}}, {"type": "Feature", "id": "http://data.archaeology.link/data/ancientports/2967_1", "label": "Agios Panteleimonas, near R Kalos (2967_1)", "dateprops": [], "properties": {}, "geometry": {"type": "Point", "coordinates": [25.736, 35.127]}}, {"type": "Feature", "id": "http://data.archaeology.link/data/ancientports/3578", "label": "Kala\u2019an Gulf (3578)", "dateprops": [], "properties": {}, "geometry": {"type": "Point", "coordinates": [35.298, 24.36]}}, {"type": "Feature", "id": "http://data.archaeology.link/data/ancientports/2488", "label": "Acic-Suat, Caraburun (2488)", "dateprops": [], "properties": {}, "geometry": {"type": "Point", "coordinates": [28.7736, 44.6752]}}, {"type": "Feature", "id": "http://data.archaeology.link/data/ancientports/1714", "label": "Archamboli, near Cape Cafireas, Cavo d'Oro (1714)", "dateprops": [], "properties": {}, "geometry": {"type": "Point", "coordinates": [24.579, 38.0927]}}, {"type": "Feature", "id": "http://data.archaeology.link/data/ancientports/1270", "label": "Manfredonia (1270)", "dateprops": [], "properties": {}, "geometry": {"type": "Point", "coordinates": [15.9221, 41.61786]}}, {"type": "Feature", "id": "http://data.archaeology.link/data/ancientports/3311", "label": "Adrasan bay, Cavus K\u00f6y\u00fc (3311)", "dateprops": [], "properties": {}, "geometry": {"type": "Point", "coordinates": [30.472, 36.3]}}, {"type": "Feature", "id": "http://data.archaeology.link/data/ancientports/1392", "label": "Trsat at Rijeka (1392)", "dateprops": [], "properties": {}, "geometry": {"type": "Point", "coordinates": [14.44413, 45.3184]}}, {"type": "Feature", "id": "http://data.archaeology.link/data/ancientports/1047_1", "label": "Outlet of R Trainiti, near Bivona (1047_1)", "dateprops": [], "properties": {}, "geometry": {"type": "Point", "coordinates": [16.0723, 38.7222]}}, {"type": "Feature", "id": "http://data.archaeology.link/data/ancientports/1260", "label": "Molfetta? (1260)", "dateprops": [], "properties": {}, "geometry": {"type": "Point", "coordinates": [16.59485, 41.21594]}}, {"type": "Feature", "id": "http://data.archaeology.link/data/ancientports/3540", "label": "Ras Abu Soma (3540)", "dateprops": [], "properties": {}, "geometry": {"type": "Point", "coordinates": [33.97852, 26.84545]}}, {"type": "Feature", "id": "http://data.archaeology.link/data/ancientports/3827", "label": "Lavan island (3827)", "dateprops": [], "properties": {}, "geometry": {"type": "Point", "coordinates": [53.27594, 26.80248]}}, {"type": "Feature", "id": "http://data.archaeology.link/data/ancientports/3452_1", "label": "Ksar Akil, Aqil, Paleolothic cave, on R Nahr Antelias. Famous Paleolithic site in Lebanon, but one of many others (3452_1)", "dateprops": [], "properties": {}, "geometry": {"type": "Point", "coordinates": [35.60325, 33.91185]}}, {"type": "Feature", "id": "http://data.archaeology.link/data/ancientports/411", "label": "Grau Vell at Sagunto, near R Palancia (411)", "dateprops": [], "properties": {}, "geometry": {"type": "Point", "coordinates": [-0.23298, 39.63639]}}, {"type": "Feature", "id": "http://data.archaeology.link/data/ancientports/4334", "label": "Sidi Abed with possible salt production (4334)", "dateprops": [], "properties": {}, "geometry": {"type": "Point", "coordinates": [-8.72279, 33.00497]}}, {"type": "Feature", "id": "http://data.archaeology.link/data/ancientports/2440_1", "label": "Cape Kastric (2440_1)", "dateprops": [], "properties": {}, "geometry": {"type": "Point", "coordinates": [28.0192, 42.0065]}}, {"type": "Feature", "id": "http://data.archaeology.link/data/ancientports/2677", "label": "Kabardinka (2677)", "dateprops": [], "properties": {}, "geometry": {"type": "Point", "coordinates": [37.928, 44.646]}}, {"type": "Feature", "id": "http://data.archaeology.link/data/ancientports/2542", "label": "Zhevakhova hora mount (2542)", "dateprops": [], "properties": {}, "geometry": {"type": "Point", "coordinates": [30.7354, 46.5454]}}, {"type": "Feature", "id": "http://data.archaeology.link/data/ancientports/1506_3", "label": "Rose (1506_3)", "dateprops": [], "properties": {}, "geometry": {"type": "Point", "coordinates": [18.556, 42.4292]}}, {"type": "Feature", "id": "http://data.archaeology.link/data/ancientports/648", "label": "Le Grand Parc, near Tour du Valat (648)", "dateprops": [], "properties": {}, "geometry": {"type": "Point", "coordinates": [4.6636, 43.503]}}, {"type": "Feature", "id": "http://data.archaeology.link/data/ancientports/180", "label": "Pedrena, on R Miera (180)", "dateprops": [], "properties": {}, "geometry": {"type": "Point", "coordinates": [-3.7657, 43.4477]}}, {"type": "Feature", "id": "http://data.archaeology.link/data/ancientports/2110", "label": "Isle of Amorgos, Yamurgi (2110)", "dateprops": [], "properties": {}, "geometry": {"type": "Point", "coordinates": [25.89018, 36.83577]}}, {"type": "Feature", "id": "http://data.archaeology.link/data/ancientports/2473", "label": "Cape Kaliakra (2473)", "dateprops": [], "properties": {}, "geometry": {"type": "Point", "coordinates": [28.4658, 43.364]}}, {"type": "Feature", "id": "http://data.archaeology.link/data/ancientports/26_1", "label": "Hardinxfeld-Giessendam, on R Beneden Merwede, one of the Rhine delta branches (26_1)", "dateprops": [], "properties": {}, "geometry": {"type": "Point", "coordinates": [4.8503, 51.8316]}}, {"type": "Feature", "id": "http://data.archaeology.link/data/ancientports/1038", "label": "Amantea (1038)", "dateprops": [], "properties": {}, "geometry": {"type": "Point", "coordinates": [16.06553, 39.12781]}}, {"type": "Feature", "id": "http://data.archaeology.link/data/ancientports/3502", "label": "Tell Qudadi, Kudadi, Tell esh-Shuna, on R Yarkon (3502)", "dateprops": [], "properties": {}, "geometry": {"type": "Point", "coordinates": [34.777, 32.10343]}}, {"type": "Feature", "id": "http://data.archaeology.link/data/ancientports/3571", "label": "Marsa Nakari, 18 km south of Marsa Alam, possibly called Chaouinah by Jacotin, with road to Nile valley (3571)", "dateprops": [], "properties": {}, "geometry": {"type": "Point", "coordinates": [34.9622, 24.9249]}}, {"type": "Feature", "id": "http://data.archaeology.link/data/ancientports/1709", "label": "Marmari, behind the Petalio islands (1709)", "dateprops": [], "properties": {}, "geometry": {"type": "Point", "coordinates": [24.317, 38.044]}}, {"type": "Feature", "id": "http://data.archaeology.link/data/ancientports/1153", "label": "Caricatore (1153)", "dateprops": [], "properties": {}, "geometry": {"type": "Point", "coordinates": [14.23, 37.06648]}}, {"type": "Feature", "id": "http://data.archaeology.link/data/ancientports/1227", "label": "Birzebbuga and Ghar Dalam cave, Saint George's bay (1227)", "dateprops": [], "properties": {}, "geometry": {"type": "Point", "coordinates": [14.53193, 35.83082]}}, {"type": "Feature", "id": "http://data.archaeology.link/data/ancientports/1755", "label": "near Chondri Ammos beach (1755)", "dateprops": [], "properties": {}, "geometry": {"type": "Point", "coordinates": [23.222, 39.131]}}, {"type": "Feature", "id": "http://data.archaeology.link/data/ancientports/2209", "label": "Roman fort at Kampos Krousos, on the isle of Lesbos, Lesvos  (2209)", "dateprops": [], "properties": {}, "geometry": {"type": "Point", "coordinates": [25.9568, 39.1148]}}, {"type": "Feature", "id": "http://data.archaeology.link/data/ancientports/421", "label": "R Ebro navigable over 200 km  (421)", "dateprops": [], "properties": {}, "geometry": {"type": "Point", "coordinates": [0.86223, 40.76499]}}, {"type": "Feature", "id": "http://data.archaeology.link/data/ancientports/3089", "label": "Palaikastro, near Agia Eirini, on R Eskikale Deresi (3089)", "dateprops": [], "properties": {}, "geometry": {"type": "Point", "coordinates": [32.9406, 35.3039]}}, {"type": "Feature", "id": "http://data.archaeology.link/data/ancientports/1416", "label": "Uvala Lukovo-Sugarje (1416)", "dateprops": [], "properties": {}, "geometry": {"type": "Point", "coordinates": [15.18564, 44.44389]}}, {"type": "Feature", "id": "http://data.archaeology.link/data/ancientports/3156", "label": "Alacati, inside Agrilar Limani (3156)", "dateprops": [], "properties": {}, "geometry": {"type": "Point", "coordinates": [26.38, 38.25]}}, {"type": "Feature", "id": "http://data.archaeology.link/data/ancientports/3455", "label": "Khalde, with Neolithic settlements (3455)", "dateprops": [], "properties": {}, "geometry": {"type": "Point", "coordinates": [35.4811, 33.808]}}, {"type": "Feature", "id": "http://data.archaeology.link/data/ancientports/3912", "label": "Tantah (3912)", "dateprops": [], "properties": {}, "geometry": {"type": "Point", "coordinates": [30.9991, 30.7839]}}, {"type": "Feature", "id": "http://data.archaeology.link/data/ancientports/4017", "label": "west of Maqbarah Sayidi Abid, Jabbanat Sidi Ubayd cemetery, Benghazi (4017)", "dateprops": [], "properties": {}, "geometry": {"type": "Point", "coordinates": [20.0862, 32.1324]}}, {"type": "Feature", "id": "http://data.archaeology.link/data/ancientports/44_1", "label": "Norman's Law oppidum on Firth of Tay (44_1)", "dateprops": [], "properties": {}, "geometry": {"type": "Point", "coordinates": [-3.1262, 56.3691]}}, {"type": "Feature", "id": "http://data.archaeology.link/data/ancientports/41_2", "label": "Cullykhan oppidum (41_2)", "dateprops": [], "properties": {}, "geometry": {"type": "Point", "coordinates": [-2.2725, 57.6852]}}, {"type": "Feature", "id": "http://data.archaeology.link/data/ancientports/3176", "label": "Bayraklidede, near Tusan Beach Resort (3176)", "dateprops": [], "properties": {}, "geometry": {"type": "Point", "coordinates": [27.27, 37.9087]}}, {"type": "Feature", "id": "http://data.archaeology.link/data/ancientports/3190", "label": "near Sarikemer (3190)", "dateprops": [], "properties": {}, "geometry": {"type": "Point", "coordinates": [27.37075, 37.56795]}}, {"type": "Feature", "id": "http://data.archaeology.link/data/ancientports/3583_1", "label": "Bir Shalatein, Shalateen, Shalatin (3583_1)", "dateprops": [], "properties": {}, "geometry": {"type": "Point", "coordinates": [35.624, 23.156]}}, {"type": "Feature", "id": "http://data.archaeology.link/data/ancientports/3678", "label": "Umm Lajj, Ummlejj, Umluj Marina (3678)", "dateprops": [], "properties": {}, "geometry": {"type": "Point", "coordinates": [37.2655, 25.0215]}}, {"type": "Feature", "id": "http://data.archaeology.link/data/ancientports/1970", "label": "Ereikussa, in the Diapontia islands (1970)", "dateprops": [], "properties": {}, "geometry": {"type": "Point", "coordinates": [19.5789, 39.8778]}}, {"type": "Feature", "id": "http://data.archaeology.link/data/ancientports/2276", "label": "Roman fort at Tsoko with port at Kerveli? on the isle of Samos  (2276)", "dateprops": [], "properties": {}, "geometry": {"type": "Point", "coordinates": [27.0195, 37.7311]}}, {"type": "Feature", "id": "http://data.archaeology.link/data/ancientports/1409", "label": "Stinica (1409)", "dateprops": [], "properties": {}, "geometry": {"type": "Point", "coordinates": [14.894, 44.724]}}, {"type": "Feature", "id": "http://data.archaeology.link/data/ancientports/639", "label": "Mas Desports, Asport (639)", "dateprops": [], "properties": {}, "geometry": {"type": "Point", "coordinates": [4.13589, 43.63916]}}, {"type": "Feature", "id": "http://data.archaeology.link/data/ancientports/4026", "label": "Ras Kurkurah, Carcura (4026)", "dateprops": [], "properties": {}, "geometry": {"type": "Point", "coordinates": [19.99281, 31.47072]}}, {"type": "Feature", "id": "http://data.archaeology.link/data/ancientports/4242", "label": "Cherchel, eastern basin (4242)", "dateprops": [], "properties": {}, "geometry": {"type": "Point", "coordinates": [2.19034, 36.6099]}}, {"type": "Feature", "id": "http://data.archaeology.link/data/ancientports/1478", "label": "Isle of Svetac (1478)", "dateprops": [], "properties": {}, "geometry": {"type": "Point", "coordinates": [15.7536, 43.0342]}}, {"type": "Feature", "id": "http://data.archaeology.link/data/ancientports/1465", "label": "Uvala Rasotica, on the isle of Brac (1465)", "dateprops": [], "properties": {}, "geometry": {"type": "Point", "coordinates": [16.88588, 43.30775]}}, {"type": "Feature", "id": "http://data.archaeology.link/data/ancientports/536", "label": "Cherbourg, on R Divette (536)", "dateprops": [], "properties": {}, "geometry": {"type": "Point", "coordinates": [-1.59889, 49.68294]}}, {"type": "Feature", "id": "http://data.archaeology.link/data/ancientports/1138", "label": "Fontane Bianche, port of Cassibile (1138)", "dateprops": [], "properties": {}, "geometry": {"type": "Point", "coordinates": [15.21453, 36.95611]}}, {"type": "Feature", "id": "http://data.archaeology.link/data/ancientports/3653", "label": "Qumah, Kumakh island (3653)", "dateprops": [], "properties": {}, "geometry": {"type": "Point", "coordinates": [42.023, 16.614]}}, {"type": "Feature", "id": "http://data.archaeology.link/data/ancientports/834", "label": "Chiavari (834)", "dateprops": [], "properties": {}, "geometry": {"type": "Point", "coordinates": [9.31088, 44.3097]}}, {"type": "Feature", "id": "http://data.archaeology.link/data/ancientports/1463", "label": "Uvala Luka, on the isle of Brac (1463)", "dateprops": [], "properties": {}, "geometry": {"type": "Point", "coordinates": [16.79767, 43.33928]}}, {"type": "Feature", "id": "http://data.archaeology.link/data/ancientports/2231", "label": "Tarsanas, at Kechrias bay, on the isle of Skiathos (2231)", "dateprops": [], "properties": {}, "geometry": {"type": "Point", "coordinates": [23.4436, 39.1842]}}, {"type": "Feature", "id": "http://data.archaeology.link/data/ancientports/3455_1", "label": "on R Nahr Damour (3455_1)", "dateprops": [], "properties": {}, "geometry": {"type": "Point", "coordinates": [35.439, 33.7079]}}, {"type": "Feature", "id": "http://data.archaeology.link/data/ancientports/1816_2", "label": "Uranoupoli (1816_2)", "dateprops": [], "properties": {}, "geometry": {"type": "Point", "coordinates": [23.979, 40.3249]}}, {"type": "Feature", "id": "http://data.archaeology.link/data/ancientports/3376", "label": "Erdemli, on R Sorgun (3376)", "dateprops": [], "properties": {}, "geometry": {"type": "Point", "coordinates": [34.3051, 36.6075]}}, {"type": "Feature", "id": "http://data.archaeology.link/data/ancientports/3752", "label": "Ras Sharwayn (3752)", "dateprops": [], "properties": {}, "geometry": {"type": "Point", "coordinates": [51.6347, 15.3618]}}, {"type": "Feature", "id": "http://data.archaeology.link/data/ancientports/4046", "label": "Ras Bu Sceefa  (4046)", "dateprops": [], "properties": {}, "geometry": {"type": "Point", "coordinates": [19.1156, 30.2711]}}, {"type": "Feature", "id": "http://data.archaeology.link/data/ancientports/3868_1", "label": "Haruba, Haruvit, near el-Kharruba (3868_1)", "dateprops": [], "properties": {}, "geometry": {"type": "Point", "coordinates": [33.9756, 31.1972]}}, {"type": "Feature", "id": "http://data.archaeology.link/data/ancientports/3261_1", "label": "near Kezil Burun or Incecik Burun or G\u00fcd\u00fck Burun? (3261_1)", "dateprops": [], "properties": {}, "geometry": {"type": "Point", "coordinates": [28.51, 36.79]}}, {"type": "Feature", "id": "http://data.archaeology.link/data/ancientports/468", "label": "Es Calo (468)", "dateprops": [], "properties": {}, "geometry": {"type": "Point", "coordinates": [3.3334, 39.773]}}, {"type": "Feature", "id": "http://data.archaeology.link/data/ancientports/2647", "label": "Mertvyy Redant, SE of Primorsko-Akhtarsk (2647)", "dateprops": [], "properties": {}, "geometry": {"type": "Point", "coordinates": [38.1975, 46.0007]}}, {"type": "Feature", "id": "http://data.archaeology.link/data/ancientports/1821", "label": "near Megisti Lavra monastry (1821)", "dateprops": [], "properties": {}, "geometry": {"type": "Point", "coordinates": [24.391, 40.171]}}, {"type": "Feature", "id": "http://data.archaeology.link/data/ancientports/2608", "label": "near Pryozerne industrial port (2608)", "dateprops": [], "properties": {}, "geometry": {"type": "Point", "coordinates": [36.4072, 45.27708]}}, {"type": "Feature", "id": "http://data.archaeology.link/data/ancientports/2606", "label": "Geroyevka (2606)", "dateprops": [], "properties": {}, "geometry": {"type": "Point", "coordinates": [36.40682, 45.21565]}}, {"type": "Feature", "id": "http://data.archaeology.link/data/ancientports/3910", "label": "Sakha, Djeqapir (3910)", "dateprops": [], "properties": {}, "geometry": {"type": "Point", "coordinates": [30.9509, 31.0895]}}, {"type": "Feature", "id": "http://data.archaeology.link/data/ancientports/2371", "label": "Yuvali, near Ugurlu Neolithic settlement, on the island G\u00f6kceada, Imbros, Imvros (2371)", "dateprops": [], "properties": {}, "geometry": {"type": "Point", "coordinates": [25.7571, 40.0959]}}, {"type": "Feature", "id": "http://data.archaeology.link/data/ancientports/1948", "label": "Agios Andreas, with triangular Tigani island now disconnected, near Cape Katakolon (1948)", "dateprops": [], "properties": {}, "geometry": {"type": "Point", "coordinates": [21.3136, 37.6642]}}, {"type": "Feature", "id": "http://data.archaeology.link/data/ancientports/699", "label": "Bay of Pampelone  (699)", "dateprops": [], "properties": {}, "geometry": {"type": "Point", "coordinates": [6.67535, 43.22894]}}, {"type": "Feature", "id": "http://data.archaeology.link/data/ancientports/515", "label": "Bois l'Abbe, near Eu, on R Bresle (515)", "dateprops": [], "properties": {}, "geometry": {"type": "Point", "coordinates": [1.46193, 50.0216]}}, {"type": "Feature", "id": "http://data.archaeology.link/data/ancientports/73", "label": "London river port on the Thames, near Regis House  (73)", "dateprops": [], "properties": {}, "geometry": {"type": "Point", "coordinates": [-0.0864, 51.5101]}}, {"type": "Feature", "id": "http://data.archaeology.link/data/ancientports/2697", "label": "R Kodori, possible ancient northern branch of a delta (2697)", "dateprops": [], "properties": {}, "geometry": {"type": "Point", "coordinates": [41.1257, 42.815]}}, {"type": "Feature", "id": "http://data.archaeology.link/data/ancientports/3709", "label": "Cabo Delgado? in front of the Commore islands (3709)", "dateprops": [], "properties": {}, "geometry": {"type": "Point", "coordinates": [40.9, -10.7]}}, {"type": "Feature", "id": "http://data.archaeology.link/data/ancientports/1266", "label": "Torre Carlone, on R Cervaro (1266)", "dateprops": [], "properties": {}, "geometry": {"type": "Point", "coordinates": [15.90633, 41.52173]}}, {"type": "Feature", "id": "http://data.archaeology.link/data/ancientports/171_20", "label": "Knockagh, oppidum, and two other forts, on R Castletown (171_20)", "dateprops": [], "properties": {}, "geometry": {"type": "Point", "coordinates": [-6.4831, 54.0356]}}, {"type": "Feature", "id": "http://data.archaeology.link/data/ancientports/3078_1", "label": "Yeronisos, Geronisos island (3078_1)", "dateprops": [], "properties": {}, "geometry": {"type": "Point", "coordinates": [32.3119, 34.8995]}}, {"type": "Feature", "id": "http://data.archaeology.link/data/ancientports/3885", "label": "Qantir, port is north of village, famous stables are south (3885)", "dateprops": [], "properties": {}, "geometry": {"type": "Point", "coordinates": [31.83486, 30.80632]}}, {"type": "Feature", "id": "http://data.archaeology.link/data/ancientports/2283", "label": "anchorage near the airport of the isle of Ikaria (2283)", "dateprops": [], "properties": {}, "geometry": {"type": "Point", "coordinates": [26.3618, 37.6873]}}, {"type": "Feature", "id": "http://data.archaeology.link/data/ancientports/1292", "label": "Ortona, Hortona (1292)", "dateprops": [], "properties": {}, "geometry": {"type": "Point", "coordinates": [14.4098, 42.357]}}, {"type": "Feature", "id": "http://data.archaeology.link/data/ancientports/1308", "label": "Fano (1308)", "dateprops": [], "properties": {}, "geometry": {"type": "Point", "coordinates": [13.01933, 43.85851]}}, {"type": "Feature", "id": "http://data.archaeology.link/data/ancientports/4341_4", "label": "Isla Gran Canaria, Tamaran (4341_4)", "dateprops": [], "properties": {}, "geometry": {"type": "Point", "coordinates": [-15.6, 27.95]}}, {"type": "Feature", "id": "http://data.archaeology.link/data/ancientports/3866_3", "label": "Trincomalee, near outlet of R Mahavali, on Sri Lanka island (3866_3)", "dateprops": [], "properties": {}, "geometry": {"type": "Point", "coordinates": [81.211, 8.556]}}, {"type": "Feature", "id": "http://data.archaeology.link/data/ancientports/2645", "label": "near Glafirovka, on Yeysky liman with R Yeya (2645)", "dateprops": [], "properties": {}, "geometry": {"type": "Point", "coordinates": [38.41771, 46.74306]}}, {"type": "Feature", "id": "http://data.archaeology.link/data/ancientports/1572", "label": "Roman fort at Phagia (1572)", "dateprops": [], "properties": {}, "geometry": {"type": "Point", "coordinates": [20.7632, 38.7702]}}, {"type": "Feature", "id": "http://data.archaeology.link/data/ancientports/2875", "label": "Gemlik, on outlet of lake Isnik G\u00f6l\u00fc (2875)", "dateprops": [], "properties": {}, "geometry": {"type": "Point", "coordinates": [29.1564, 40.4325]}}, {"type": "Feature", "id": "http://data.archaeology.link/data/ancientports/206", "label": "Castro Barona  (206)", "dateprops": [], "properties": {}, "geometry": {"type": "Point", "coordinates": [-9.0318, 42.6945]}}, {"type": "Feature", "id": "http://data.archaeology.link/data/ancientports/3085_1", "label": "Petra tou Limniti islet, Tas Adasi, Yesilirmak (3085_1)", "dateprops": [], "properties": {}, "geometry": {"type": "Point", "coordinates": [32.7382, 35.1813]}}, {"type": "Feature", "id": "http://data.archaeology.link/data/ancientports/2261", "label": "Amades, on the isle of Chios (2261)", "dateprops": [], "properties": {}, "geometry": {"type": "Point", "coordinates": [26.0385, 38.5741]}}, {"type": "Feature", "id": "http://data.archaeology.link/data/ancientports/3699", "label": "Sharm el-Sheikh (3699)", "dateprops": [], "properties": {}, "geometry": {"type": "Point", "coordinates": [34.29197, 27.85935]}}, {"type": "Feature", "id": "http://data.archaeology.link/data/ancientports/3842", "label": "Lipar, on Chabahar Pink Lake (3842)", "dateprops": [], "properties": {}, "geometry": {"type": "Point", "coordinates": [60.83, 25.248]}}, {"type": "Feature", "id": "http://data.archaeology.link/data/ancientports/79_1", "label": "Cliffsend Farm, with Bronze Age settlement, possible landing place of Caesar in 54 BC at Pegwell Bay (79_1)", "dateprops": [], "properties": {}, "geometry": {"type": "Point", "coordinates": [1.382, 51.33]}}, {"type": "Feature", "id": "http://data.archaeology.link/data/ancientports/166", "label": "Stranraer (166)", "dateprops": [], "properties": {}, "geometry": {"type": "Point", "coordinates": [-5.02715, 54.9066]}}, {"type": "Feature", "id": "http://data.archaeology.link/data/ancientports/1708_1", "label": "Nimborio (1708_1)", "dateprops": [], "properties": {}, "geometry": {"type": "Point", "coordinates": [24.21, 38.121]}}, {"type": "Feature", "id": "http://data.archaeology.link/data/ancientports/3374", "label": "Akkale near Kumkuyu  (3374)", "dateprops": [], "properties": {}, "geometry": {"type": "Point", "coordinates": [34.2226, 36.529]}}, {"type": "Feature", "id": "http://data.archaeology.link/data/ancientports/3892_4", "label": "Mahattat al Kibrit, Kabret, near Chalouf, Shaluf, between both Bitter Lakes, 3rd stela of Darius on Nile to Red Sea canal, Ptolemy locates Arsinoe at 20' of latitude north of Clysma (3892_4)", "dateprops": [], "properties": {}, "geometry": {"type": "Point", "coordinates": [32.501, 30.259]}}, {"type": "Feature", "id": "http://data.archaeology.link/data/ancientports/2272", "label": "Roman fort at Agios Ioannis, on the isle of Samos  (2272)", "dateprops": [], "properties": {}, "geometry": {"type": "Point", "coordinates": [26.6691, 37.7188]}}, {"type": "Feature", "id": "http://data.archaeology.link/data/ancientports/3230", "label": "Okluk Koyu, inside Degirmen B\u00fck\u00fc (3230)", "dateprops": [], "properties": {}, "geometry": {"type": "Point", "coordinates": [28.1716, 36.92055]}}, {"type": "Feature", "id": "http://data.archaeology.link/data/ancientports/3292", "label": "Limanagzi, Bayindir Liman (3292)", "dateprops": [], "properties": {}, "geometry": {"type": "Point", "coordinates": [29.6512, 36.1739]}}, {"type": "Feature", "id": "http://data.archaeology.link/data/ancientports/2312", "label": "Yialos, on the isle of Simi, S\u00f6mbeki Adasi (2312)", "dateprops": [], "properties": {}, "geometry": {"type": "Point", "coordinates": [27.8374, 36.6128]}}, {"type": "Feature", "id": "http://data.archaeology.link/data/ancientports/1111_1", "label": "Capo Peloro (1111_1)", "dateprops": [], "properties": {}, "geometry": {"type": "Point", "coordinates": [15.646, 38.263]}}, {"type": "Feature", "id": "http://data.archaeology.link/data/ancientports/2885", "label": "Akcapinar (2885)", "dateprops": [], "properties": {}, "geometry": {"type": "Point", "coordinates": [28.652, 40.1154]}}, {"type": "Feature", "id": "http://data.archaeology.link/data/ancientports/3312", "label": "Olimpos on R G\u00f6ks\u00fc (3312)", "dateprops": [], "properties": {}, "geometry": {"type": "Point", "coordinates": [30.4734, 36.3963]}}, {"type": "Feature", "id": "http://data.archaeology.link/data/ancientports/4220_1", "label": "Wadi Daas, Ddas (4220_1)", "dateprops": [], "properties": {}, "geometry": {"type": "Point", "coordinates": [4.812, 36.867]}}, {"type": "Feature", "id": "http://data.archaeology.link/data/ancientports/755", "label": "Posada (755)", "dateprops": [], "properties": {}, "geometry": {"type": "Point", "coordinates": [9.72289, 40.63937]}}, {"type": "Feature", "id": "http://data.archaeology.link/data/ancientports/3199_1", "label": "now inland at Batik\u00f6y, Mezar Tepe (3199_1)", "dateprops": [], "properties": {}, "geometry": {"type": "Point", "coordinates": [27.2422, 37.5333]}}, {"type": "Feature", "id": "http://data.archaeology.link/data/ancientports/1545_1", "label": "Ormos Kerentzas (1545_1)", "dateprops": [], "properties": {}, "geometry": {"type": "Point", "coordinates": [20.485, 39.2185]}}, {"type": "Feature", "id": "http://data.archaeology.link/data/ancientports/1_2", "label": "Haugvik, on the isle of Somna (1_2)", "dateprops": [], "properties": {}, "geometry": {"type": "Point", "coordinates": [12.112, 65.296]}}, {"type": "Feature", "id": "http://data.archaeology.link/data/ancientports/200_6", "label": "Castro Elvina (200_6)", "dateprops": [], "properties": {}, "geometry": {"type": "Point", "coordinates": [-8.4162, 43.33]}}, {"type": "Feature", "id": "http://data.archaeology.link/data/ancientports/3027", "label": "Stomio bay? Ptolemy locates Rhamous portus at 10\u2019 of latitude south of Phalasarna, near the beach of Stomio (3027)", "dateprops": [], "properties": {}, "geometry": {"type": "Point", "coordinates": [23.54097, 35.32341]}}, {"type": "Feature", "id": "http://data.archaeology.link/data/ancientports/3363", "label": "Agalimani behind Bogsak Adasi island (3363)", "dateprops": [], "properties": {}, "geometry": {"type": "Point", "coordinates": [33.82695, 36.26681]}}, {"type": "Feature", "id": "http://data.archaeology.link/data/ancientports/3769", "label": "Seeb, Sib (3769)", "dateprops": [], "properties": {}, "geometry": {"type": "Point", "coordinates": [58.181, 23.688]}}, {"type": "Feature", "id": "http://data.archaeology.link/data/ancientports/109_4", "label": "Redcliff castle oppidum (109_4)", "dateprops": [], "properties": {}, "geometry": {"type": "Point", "coordinates": [-5.0333, 50.487]}}, {"type": "Feature", "id": "http://data.archaeology.link/data/ancientports/1327", "label": "Cavanella d'Adige (1327)", "dateprops": [], "properties": {}, "geometry": {"type": "Point", "coordinates": [12.24533, 45.10979]}}, {"type": "Feature", "id": "http://data.archaeology.link/data/ancientports/252_3", "label": "Alcacova de Santarem on R Tage  (252_3)", "dateprops": [], "properties": {}, "geometry": {"type": "Point", "coordinates": [-8.6767, 39.2342]}}, {"type": "Feature", "id": "http://data.archaeology.link/data/ancientports/3556", "label": "Marsa Umm Gheig (3556)", "dateprops": [], "properties": {}, "geometry": {"type": "Point", "coordinates": [34.5469, 25.7262]}}, {"type": "Feature", "id": "http://data.archaeology.link/data/ancientports/2008", "label": "Polis, near Stavros on the isle of Ithaca (2008)", "dateprops": [], "properties": {}, "geometry": {"type": "Point", "coordinates": [20.63943, 38.43803]}}, {"type": "Feature", "id": "http://data.archaeology.link/data/ancientports/3149", "label": "near K\u00fcc\u00fckbahce (3149)", "dateprops": [], "properties": {}, "geometry": {"type": "Point", "coordinates": [26.36618, 38.55799]}}, {"type": "Feature", "id": "http://data.archaeology.link/data/ancientports/3182", "label": "Port Saint Nikolao, near Cape Doganbey, Dip Burnu (3182)", "dateprops": [], "properties": {}, "geometry": {"type": "Point", "coordinates": [27.01623, 37.64909]}}, {"type": "Feature", "id": "http://data.archaeology.link/data/ancientports/2425", "label": "Emirgan (2425)", "dateprops": [], "properties": {}, "geometry": {"type": "Point", "coordinates": [29.0571, 41.1033]}}, {"type": "Feature", "id": "http://data.archaeology.link/data/ancientports/3864_9", "label": "Tuticorin (3864_9)", "dateprops": [], "properties": {}, "geometry": {"type": "Point", "coordinates": [78.171, 8.781]}}, {"type": "Feature", "id": "http://data.archaeology.link/data/ancientports/3203", "label": "Sapli Ada (3203)", "dateprops": [], "properties": {}, "geometry": {"type": "Point", "coordinates": [27.411, 37.4121]}}, {"type": "Feature", "id": "http://data.archaeology.link/data/ancientports/2844", "label": "Vanik\u00f6y (2844)", "dateprops": [], "properties": {}, "geometry": {"type": "Point", "coordinates": [29.05524, 41.06775]}}, {"type": "Feature", "id": "http://data.archaeology.link/data/ancientports/3192", "label": "Mersinet Iskelesi, near Pinarcik (3192)", "dateprops": [], "properties": {}, "geometry": {"type": "Point", "coordinates": [27.4853, 37.4775]}}, {"type": "Feature", "id": "http://data.archaeology.link/data/ancientports/284", "label": "Rosario, Roman ruins (284)", "dateprops": [], "properties": {}, "geometry": {"type": "Point", "coordinates": [-8.51862, 37.10775]}}, {"type": "Feature", "id": "http://data.archaeology.link/data/ancientports/478", "label": "Isle of Cabrera (478)", "dateprops": [], "properties": {}, "geometry": {"type": "Point", "coordinates": [2.94322, 39.13847]}}, {"type": "Feature", "id": "http://data.archaeology.link/data/ancientports/1284", "label": "Arcora (1284)", "dateprops": [], "properties": {}, "geometry": {"type": "Point", "coordinates": [15.05334, 41.93962]}}, {"type": "Feature", "id": "http://data.archaeology.link/data/ancientports/1385_3", "label": "Uvala Kala (1385_3)", "dateprops": [], "properties": {}, "geometry": {"type": "Point", "coordinates": [13.981, 44.8532]}}, {"type": "Feature", "id": "http://data.archaeology.link/data/ancientports/142", "label": "Saint Asaph, Flintshire, on R Elwy (142)", "dateprops": [], "properties": {}, "geometry": {"type": "Point", "coordinates": [-3.442, 53.257]}}, {"type": "Feature", "id": "http://data.archaeology.link/data/ancientports/509_4", "label": "La Calotterie, Attin, on R Canche (509_4)", "dateprops": [], "properties": {}, "geometry": {"type": "Point", "coordinates": [1.728, 50.4766]}}, {"type": "Feature", "id": "http://data.archaeology.link/data/ancientports/3113", "label": "Altinoluk, Avcilar Iskele, on R Oksijen, Sahindere (3113)", "dateprops": [], "properties": {}, "geometry": {"type": "Point", "coordinates": [26.7505, 39.5635]}}, {"type": "Feature", "id": "http://data.archaeology.link/data/ancientports/579", "label": "Locmariaquer (579)", "dateprops": [], "properties": {}, "geometry": {"type": "Point", "coordinates": [-2.94827, 47.57128]}}, {"type": "Feature", "id": "http://data.archaeology.link/data/ancientports/1874", "label": "Ydra, on the isle of Idra (1874)", "dateprops": [], "properties": {}, "geometry": {"type": "Point", "coordinates": [23.466, 37.3504]}}, {"type": "Feature", "id": "http://data.archaeology.link/data/ancientports/1163", "label": "Agrigento, on R San Leone (1163)", "dateprops": [], "properties": {}, "geometry": {"type": "Point", "coordinates": [13.5843, 37.291]}}, {"type": "Feature", "id": "http://data.archaeology.link/data/ancientports/3772", "label": "Khor Kalba (3772)", "dateprops": [], "properties": {}, "geometry": {"type": "Point", "coordinates": [56.369, 25.028]}}, {"type": "Feature", "id": "http://data.archaeology.link/data/ancientports/1604", "label": "Itea, on R Skitsa (1604)", "dateprops": [], "properties": {}, "geometry": {"type": "Point", "coordinates": [22.425, 38.4307]}}, {"type": "Feature", "id": "http://data.archaeology.link/data/ancientports/1068", "label": "Bovalino Marina (1068)", "dateprops": [], "properties": {}, "geometry": {"type": "Point", "coordinates": [16.17783, 38.1415]}}, {"type": "Feature", "id": "http://data.archaeology.link/data/ancientports/3046", "label": "Palio Khorio near Agia Napa  (3046)", "dateprops": [], "properties": {}, "geometry": {"type": "Point", "coordinates": [34.0054, 34.9816]}}, {"type": "Feature", "id": "http://data.archaeology.link/data/ancientports/3269", "label": "Kizilkuyruk K\u00f6y\u00fc, Aga Limani (3269)", "dateprops": [], "properties": {}, "geometry": {"type": "Point", "coordinates": [28.8692, 36.6204]}}, {"type": "Feature", "id": "http://data.archaeology.link/data/ancientports/2576_2", "label": "Lazurnoe (2576_2)", "dateprops": [], "properties": {}, "geometry": {"type": "Point", "coordinates": [32.82, 45.361]}}, {"type": "Feature", "id": "http://data.archaeology.link/data/ancientports/3796", "label": "Koweith (3796)", "dateprops": [], "properties": {}, "geometry": {"type": "Point", "coordinates": [48.06, 29.37]}}, {"type": "Feature", "id": "http://data.archaeology.link/data/ancientports/3255", "label": "Gerbekse  (3255)", "dateprops": [], "properties": {}, "geometry": {"type": "Point", "coordinates": [28.2237, 36.7008]}}, {"type": "Feature", "id": "http://data.archaeology.link/data/ancientports/1970_1", "label": "Othoni, in the Diapontia islands (1970_1)", "dateprops": [], "properties": {}, "geometry": {"type": "Point", "coordinates": [19.4029, 39.8417]}}, {"type": "Feature", "id": "http://data.archaeology.link/data/ancientports/1760", "label": "Polidendri (1760)", "dateprops": [], "properties": {}, "geometry": {"type": "Point", "coordinates": [22.892, 39.674]}}, {"type": "Feature", "id": "http://data.archaeology.link/data/ancientports/1831", "label": "Sikia (1831)", "dateprops": [], "properties": {}, "geometry": {"type": "Point", "coordinates": [23.8149, 40.781]}}, {"type": "Feature", "id": "http://data.archaeology.link/data/ancientports/127_4", "label": "Skomer island oppidum (127_4)", "dateprops": [], "properties": {}, "geometry": {"type": "Point", "coordinates": [-5.2802, 51.7331]}}, {"type": "Feature", "id": "http://data.archaeology.link/data/ancientports/1120", "label": "Islets of Faraglioni, in front of Aci Tressa (Cuisenier mentions this site with two other possible sites: Marettimo and Nisida, the latter clearly providing the best shelter as described by Homer) (1120)", "dateprops": [], "properties": {}, "geometry": {"type": "Point", "coordinates": [15.16887, 37.55923]}}, {"type": "Feature", "id": "http://data.archaeology.link/data/ancientports/2055", "label": "Vlantoi islets near Laouti? on the isle of Tenos (2055)", "dateprops": [], "properties": {}, "geometry": {"type": "Point", "coordinates": [25.2129, 37.5273]}}, {"type": "Feature", "id": "http://data.archaeology.link/data/ancientports/1841", "label": "Fortlet near Pontolivado, west of R Nestos delta (1841)", "dateprops": [], "properties": {}, "geometry": {"type": "Point", "coordinates": [24.6087, 40.9772]}}, {"type": "Feature", "id": "http://data.archaeology.link/data/ancientports/246", "label": "Torres Vedras on R Sizandro  (246)", "dateprops": [], "properties": {}, "geometry": {"type": "Point", "coordinates": [-9.40707, 39.10806]}}, {"type": "Feature", "id": "http://data.archaeology.link/data/ancientports/3855", "label": "Kund Malir, on R Hingol (3855)", "dateprops": [], "properties": {}, "geometry": {"type": "Point", "coordinates": [65.5, 25.35]}}, {"type": "Feature", "id": "http://data.archaeology.link/data/ancientports/1901", "label": "Isle of Monemvasia (1901)", "dateprops": [], "properties": {}, "geometry": {"type": "Point", "coordinates": [23.03865, 36.68473]}}, {"type": "Feature", "id": "http://data.archaeology.link/data/ancientports/2269", "label": "Ireo Samou, , on R Imbrasos, on the SE coast the isle of Samos (2269)", "dateprops": [], "properties": {}, "geometry": {"type": "Point", "coordinates": [26.8855, 37.6718]}}, {"type": "Feature", "id": "http://data.archaeology.link/data/ancientports/2855", "label": "Isle of Burgaz Adasi in the Prince islands (2855)", "dateprops": [], "properties": {}, "geometry": {"type": "Point", "coordinates": [29.07291, 40.88218]}}, {"type": "Feature", "id": "http://data.archaeology.link/data/ancientports/2120_1", "label": "Skarkos, on the isle of Ios (2120_1)", "dateprops": [], "properties": {}, "geometry": {"type": "Point", "coordinates": [25.2829, 36.7318]}}, {"type": "Feature", "id": "http://data.archaeology.link/data/ancientports/2206", "label": "Roman fort at Bigla tou Aetou, on the isle of Lesbos, Lesvos  (2206)", "dateprops": [], "properties": {}, "geometry": {"type": "Point", "coordinates": [26.12757, 39.1369]}}, {"type": "Feature", "id": "http://data.archaeology.link/data/ancientports/2496", "label": "Dunavatu de Sus (2496)", "dateprops": [], "properties": {}, "geometry": {"type": "Point", "coordinates": [29.224, 45.013]}}, {"type": "Feature", "id": "http://data.archaeology.link/data/ancientports/3755", "label": "Al-Ghayda? (3755)", "dateprops": [], "properties": {}, "geometry": {"type": "Point", "coordinates": [52.245, 16.192]}}, {"type": "Feature", "id": "http://data.archaeology.link/data/ancientports/432", "label": "Darro (432)", "dateprops": [], "properties": {}, "geometry": {"type": "Point", "coordinates": [1.7143, 41.212]}}, {"type": "Feature", "id": "http://data.archaeology.link/data/ancientports/3100", "label": "Exarchos Bay (3100)", "dateprops": [], "properties": {}, "geometry": {"type": "Point", "coordinates": [34.458, 35.653]}}, {"type": "Feature", "id": "http://data.archaeology.link/data/ancientports/561", "label": "Oppidum and Roman fort at \u00eele Tristan island, large fish processing factory at rue du Guet, Douarnenez (561)", "dateprops": [], "properties": {}, "geometry": {"type": "Point", "coordinates": [-4.337, 48.101]}}, {"type": "Feature", "id": "http://data.archaeology.link/data/ancientports/3357", "label": "Besparmak Adasi, Babali Adasi (3357)", "dateprops": [], "properties": {}, "geometry": {"type": "Point", "coordinates": [33.53484, 36.12307]}}, {"type": "Feature", "id": "http://data.archaeology.link/data/ancientports/4332", "label": "Sidi Bouzid (4332)", "dateprops": [], "properties": {}, "geometry": {"type": "Point", "coordinates": [-8.55786, 33.22866]}}, {"type": "Feature", "id": "http://data.archaeology.link/data/ancientports/3017", "label": "Hormos Sarakinikos, on the isle of Gavdos (3017)", "dateprops": [], "properties": {}, "geometry": {"type": "Point", "coordinates": [24.111, 34.861]}}, {"type": "Feature", "id": "http://data.archaeology.link/data/ancientports/2962", "label": "Militos  (2962)", "dateprops": [], "properties": {}, "geometry": {"type": "Point", "coordinates": [25.5655, 35.3144]}}, {"type": "Feature", "id": "http://data.archaeology.link/data/ancientports/4179", "label": "Kalat el-Andalous, in the delta of R Medjerda (4179)", "dateprops": [], "properties": {}, "geometry": {"type": "Point", "coordinates": [10.117, 37.058]}}, {"type": "Feature", "id": "http://data.archaeology.link/data/ancientports/1207", "label": "Caletta dei Zimmeri & Punta Milazzese, south of the isle of Panarea (1207)", "dateprops": [], "properties": {}, "geometry": {"type": "Point", "coordinates": [15.0636, 38.6256]}}, {"type": "Feature", "id": "http://data.archaeology.link/data/ancientports/127_3", "label": "Victoria Bay oppidum, near Marloes (127_3)", "dateprops": [], "properties": {}, "geometry": {"type": "Point", "coordinates": [-5.232, 51.7257]}}, {"type": "Feature", "id": "http://data.archaeology.link/data/ancientports/2022", "label": "Zakinthos, on the Isle of Zakinthos (2022)", "dateprops": [], "properties": {}, "geometry": {"type": "Point", "coordinates": [20.9, 37.7787]}}, {"type": "Feature", "id": "http://data.archaeology.link/data/ancientports/3391_2", "label": "Sirkeli could possibly be reached by sea ships, on R Ceyhan (3391_2)", "dateprops": [], "properties": {}, "geometry": {"type": "Point", "coordinates": [35.744, 37.003]}}, {"type": "Feature", "id": "http://data.archaeology.link/data/ancientports/4095", "label": "near the airport of Zuwarah (4095)", "dateprops": [], "properties": {}, "geometry": {"type": "Point", "coordinates": [12.01681, 32.98629]}}, {"type": "Feature", "id": "http://data.archaeology.link/data/ancientports/946", "label": "Castello di San Gallo at Nettuno, on R Loricina (946)", "dateprops": [], "properties": {}, "geometry": {"type": "Point", "coordinates": [12.66064, 41.45612]}}, {"type": "Feature", "id": "http://data.archaeology.link/data/ancientports/1182_1", "label": "Tonnara di Cofino (1182_1)", "dateprops": [], "properties": {}, "geometry": {"type": "Point", "coordinates": [12.6801, 38.1123]}}, {"type": "Feature", "id": "http://data.archaeology.link/data/ancientports/2765", "label": "R Kizilirmak at Cape Bafra (2765)", "dateprops": [], "properties": {}, "geometry": {"type": "Point", "coordinates": [35.95906, 41.74762]}}, {"type": "Feature", "id": "http://data.archaeology.link/data/ancientports/743", "label": "Sagone, on R Sagone (743)", "dateprops": [], "properties": {}, "geometry": {"type": "Point", "coordinates": [8.69, 42.1183]}}, {"type": "Feature", "id": "http://data.archaeology.link/data/ancientports/1330", "label": "Lova, near Campagna Lupia on R Bacchiglione (1330)", "dateprops": [], "properties": {}, "geometry": {"type": "Point", "coordinates": [12.09872, 45.33435]}}, {"type": "Feature", "id": "http://data.archaeology.link/data/ancientports/242", "label": "Obidos (242)", "dateprops": [], "properties": {}, "geometry": {"type": "Point", "coordinates": [-9.20886, 39.40702]}}, {"type": "Feature", "id": "http://data.archaeology.link/data/ancientports/747_2", "label": "Lozari, at outlet of R Reginu (747_2)", "dateprops": [], "properties": {}, "geometry": {"type": "Point", "coordinates": [9.009, 42.641]}}, {"type": "Feature", "id": "http://data.archaeology.link/data/ancientports/256", "label": "Quinta do Almaraz, Cacilhas, Almada  (256)", "dateprops": [], "properties": {}, "geometry": {"type": "Point", "coordinates": [-9.1441, 38.682]}}, {"type": "Feature", "id": "http://data.archaeology.link/data/ancientports/849", "label": "Isola del Migliarino, near R Serchio (849)", "dateprops": [], "properties": {}, "geometry": {"type": "Point", "coordinates": [10.32724, 43.76764]}}, {"type": "Feature", "id": "http://data.archaeology.link/data/ancientports/586", "label": "Nantes, at the outlet of R Erdre? (586)", "dateprops": [], "properties": {}, "geometry": {"type": "Point", "coordinates": [-1.5452, 47.2156]}}, {"type": "Feature", "id": "http://data.archaeology.link/data/ancientports/862", "label": "Follonica (862)", "dateprops": [], "properties": {}, "geometry": {"type": "Point", "coordinates": [10.757, 42.917]}}, {"type": "Feature", "id": "http://data.archaeology.link/data/ancientports/2913", "label": "Eski Kale, on Babakale promontory (2913)", "dateprops": [], "properties": {}, "geometry": {"type": "Point", "coordinates": [26.3, 40.0092]}}, {"type": "Feature", "id": "http://data.archaeology.link/data/ancientports/3141_5", "label": "Cigli? (3141_5)", "dateprops": [], "properties": {}, "geometry": {"type": "Point", "coordinates": [27.0628, 38.505]}}, {"type": "Feature", "id": "http://data.archaeology.link/data/ancientports/1868_1", "label": "near Kastro Favierou castle (1868_1)", "dateprops": [], "properties": {}, "geometry": {"type": "Point", "coordinates": [23.3615, 37.5608]}}, {"type": "Feature", "id": "http://data.archaeology.link/data/ancientports/1909", "label": "Paralia near quarry at Daimonia (1909)", "dateprops": [], "properties": {}, "geometry": {"type": "Point", "coordinates": [22.8813, 36.6473]}}, {"type": "Feature", "id": "http://data.archaeology.link/data/ancientports/2758", "label": "near Kurtulus at the airport of Samsun (2758)", "dateprops": [], "properties": {}, "geometry": {"type": "Point", "coordinates": [36.5626, 41.2924]}}, {"type": "Feature", "id": "http://data.archaeology.link/data/ancientports/1174", "label": "Punta Alga, at Marsala (1174)", "dateprops": [], "properties": {}, "geometry": {"type": "Point", "coordinates": [12.44334, 37.8124]}}, {"type": "Feature", "id": "http://data.archaeology.link/data/ancientports/1612", "label": "Thisvi (1612)", "dateprops": [], "properties": {}, "geometry": {"type": "Point", "coordinates": [22.9688, 38.2671]}}, {"type": "Feature", "id": "http://data.archaeology.link/data/ancientports/356", "label": "Basilica Vega del Mar, at San Pedro de Alcantara (356)", "dateprops": [], "properties": {}, "geometry": {"type": "Point", "coordinates": [-4.9902, 36.47205]}}, {"type": "Feature", "id": "http://data.archaeology.link/data/ancientports/3694", "label": "al-Khuraybah in Aynunah bay, a road to Petra starts there. Some scholars locate Leuke Kome at al-Wajh, 240 km further south. (3694)", "dateprops": [], "properties": {}, "geometry": {"type": "Point", "coordinates": [35.1831, 28.0867]}}, {"type": "Feature", "id": "http://data.archaeology.link/data/ancientports/97", "label": "Major oppidum at Hengistbury Head (97)", "dateprops": [], "properties": {}, "geometry": {"type": "Point", "coordinates": [-1.7604, 50.7172]}}, {"type": "Feature", "id": "http://data.archaeology.link/data/ancientports/1721", "label": "Agios Vasileios islet (1721)", "dateprops": [], "properties": {}, "geometry": {"type": "Point", "coordinates": [23.4439, 38.8832]}}, {"type": "Feature", "id": "http://data.archaeology.link/data/ancientports/211", "label": "Isla Toxa Grande (211)", "dateprops": [], "properties": {}, "geometry": {"type": "Point", "coordinates": [-8.84411, 42.48749]}}, {"type": "Feature", "id": "http://data.archaeology.link/data/ancientports/3832_2", "label": "Larak island, where 'red lead' (iron ore) is found (3832_2)", "dateprops": [], "properties": {}, "geometry": {"type": "Point", "coordinates": [56.35, 26.86]}}, {"type": "Feature", "id": "http://data.archaeology.link/data/ancientports/3256", "label": "Ciftlik K\u00f6y\u00fc, west of Hayirsiz Burun (3256)", "dateprops": [], "properties": {}, "geometry": {"type": "Point", "coordinates": [28.24103, 36.71494]}}, {"type": "Feature", "id": "http://data.archaeology.link/data/ancientports/2038", "label": "Kastri and Paoura, on the isle of Kea, M\u00fcrted (2038)", "dateprops": [], "properties": {}, "geometry": {"type": "Point", "coordinates": [24.40767, 37.66292]}}, {"type": "Feature", "id": "http://data.archaeology.link/data/ancientports/473", "label": "Puerto de Cala Llonga, Cala d'Or (473)", "dateprops": [], "properties": {}, "geometry": {"type": "Point", "coordinates": [3.22445, 39.36924]}}, {"type": "Feature", "id": "http://data.archaeology.link/data/ancientports/692", "label": "Petit Avis (Levant) (692)", "dateprops": [], "properties": {}, "geometry": {"type": "Point", "coordinates": [6.45624, 43.02962]}}, {"type": "Feature", "id": "http://data.archaeology.link/data/ancientports/2385", "label": "M\u00fcrefte (2385)", "dateprops": [], "properties": {}, "geometry": {"type": "Point", "coordinates": [27.246, 40.667]}}, {"type": "Feature", "id": "http://data.archaeology.link/data/ancientports/3992", "label": "near Zawiyat Umm Hufayn (3992)", "dateprops": [], "properties": {}, "geometry": {"type": "Point", "coordinates": [23.092, 32.563]}}, {"type": "Feature", "id": "http://data.archaeology.link/data/ancientports/3414", "label": "Minet el-Beida, near Ras Shamra, on R Nahr el-Fidd, Fayd (3414)", "dateprops": [], "properties": {}, "geometry": {"type": "Point", "coordinates": [35.77212, 35.60915]}}, {"type": "Feature", "id": "http://data.archaeology.link/data/ancientports/108_3", "label": "Crane castle oppidum (108_3)", "dateprops": [], "properties": {}, "geometry": {"type": "Point", "coordinates": [-5.3188, 50.248]}}, {"type": "Feature", "id": "http://data.archaeology.link/data/ancientports/1935_2", "label": "Isle of Agia Marina (1935_2)", "dateprops": [], "properties": {}, "geometry": {"type": "Point", "coordinates": [21.744, 36.7539]}}, {"type": "Feature", "id": "http://data.archaeology.link/data/ancientports/3799", "label": "Nahdain, Subiyah, Koweith (3799)", "dateprops": [], "properties": {}, "geometry": {"type": "Point", "coordinates": [47.9332, 29.6497]}}, {"type": "Feature", "id": "http://data.archaeology.link/data/ancientports/4254", "label": "Outlet of wadi Roumane, wadi Titinguel (4254)", "dateprops": [], "properties": {}, "geometry": {"type": "Point", "coordinates": [0.4842, 36.24]}}, {"type": "Feature", "id": "http://data.archaeology.link/data/ancientports/2362", "label": "near Evrese (2362)", "dateprops": [], "properties": {}, "geometry": {"type": "Point", "coordinates": [26.8411, 40.6251]}}, {"type": "Feature", "id": "http://data.archaeology.link/data/ancientports/2884", "label": "Apolyont, G\u00f6lyazi on Lake Uluabat G\u00f6l\u00fc, near R Kocasu, near Aktopraklik Neolithic settlement (2884)", "dateprops": [], "properties": {}, "geometry": {"type": "Point", "coordinates": [28.67536, 40.16385]}}, {"type": "Feature", "id": "http://data.archaeology.link/data/ancientports/95_1", "label": "Bouldnor Cliff, submerged Mesolithic settlement, on the isle of Wight (95_1)", "dateprops": [], "properties": {}, "geometry": {"type": "Point", "coordinates": [-1.4822, 50.7107]}}, {"type": "Feature", "id": "http://data.archaeology.link/data/ancientports/2484", "label": "Ovidiu (2484)", "dateprops": [], "properties": {}, "geometry": {"type": "Point", "coordinates": [28.567, 44.262]}}, {"type": "Feature", "id": "http://data.archaeology.link/data/ancientports/2459", "label": "Pomorie (2459)", "dateprops": [], "properties": {}, "geometry": {"type": "Point", "coordinates": [27.638, 42.553]}}, {"type": "Feature", "id": "http://data.archaeology.link/data/ancientports/1924", "label": "with quarry at Alika (1924)", "dateprops": [], "properties": {}, "geometry": {"type": "Point", "coordinates": [22.4343, 36.4621]}}, {"type": "Feature", "id": "http://data.archaeology.link/data/ancientports/3522_4", "label": "Wadi Abu Ashayir el-Rayyan (3522_4)", "dateprops": [], "properties": {}, "geometry": {"type": "Point", "coordinates": [32.5733, 29.3696]}}, {"type": "Feature", "id": "http://data.archaeology.link/data/ancientports/1079", "label": "Cape Rizzuto (1079)", "dateprops": [], "properties": {}, "geometry": {"type": "Point", "coordinates": [17.08987, 38.899]}}, {"type": "Feature", "id": "http://data.archaeology.link/data/ancientports/3535", "label": "Marsa Abu Makhadiq (3535)", "dateprops": [], "properties": {}, "geometry": {"type": "Point", "coordinates": [33.89331, 27.04182]}}, {"type": "Feature", "id": "http://data.archaeology.link/data/ancientports/3308", "label": "Besadalar, five islands in front of cape Gelidonya Burnu, Taslik Burnu (3308)", "dateprops": [], "properties": {}, "geometry": {"type": "Point", "coordinates": [30.40416, 36.19395]}}, {"type": "Feature", "id": "http://data.archaeology.link/data/ancientports/3957", "label": "Ras el-Kanayis, Ras Kana\u00efs, Ras el-Hekma (3957)", "dateprops": [], "properties": {}, "geometry": {"type": "Point", "coordinates": [27.8669, 31.2378]}}, {"type": "Feature", "id": "http://data.archaeology.link/data/ancientports/3996", "label": "Ras Bu Meddad, Emilia resort, 8 km west of Derna (3996)", "dateprops": [], "properties": {}, "geometry": {"type": "Point", "coordinates": [22.564, 32.7933]}}, {"type": "Feature", "id": "http://data.archaeology.link/data/ancientports/1321", "label": "Tombe, near Lagosanto (1321)", "dateprops": [], "properties": {}, "geometry": {"type": "Point", "coordinates": [12.13237, 44.7672]}}, {"type": "Feature", "id": "http://data.archaeology.link/data/ancientports/185_1", "label": "Punta de Rodiles, on Ria de Villaviciosa (185_1)", "dateprops": [], "properties": {}, "geometry": {"type": "Point", "coordinates": [-5.38, 43.537]}}, {"type": "Feature", "id": "http://data.archaeology.link/data/ancientports/3474", "label": "Achziv, Akzib (3474)", "dateprops": [], "properties": {}, "geometry": {"type": "Point", "coordinates": [35.1019, 33.0486]}}, {"type": "Feature", "id": "http://data.archaeology.link/data/ancientports/3109", "label": "Apollon plaji, G\u00f6ztepe (3109)", "dateprops": [], "properties": {}, "geometry": {"type": "Point", "coordinates": [26.0829, 39.5213]}}, {"type": "Feature", "id": "http://data.archaeology.link/data/ancientports/1674", "label": "Isle of Mitrou, near Tragana, with BA settlement (1674)", "dateprops": [], "properties": {}, "geometry": {"type": "Point", "coordinates": [23.1235, 38.6354]}}, {"type": "Feature", "id": "http://data.archaeology.link/data/ancientports/904", "label": "Santa Marinella (904)", "dateprops": [], "properties": {}, "geometry": {"type": "Point", "coordinates": [11.8544, 42.0343]}}, {"type": "Feature", "id": "http://data.archaeology.link/data/ancientports/3733_2", "label": "Eil Geradi, Ceel Gerdi, Neolithic settlement (3733_2)", "dateprops": [], "properties": {}, "geometry": {"type": "Point", "coordinates": [45.1986, 10.5433]}}, {"type": "Feature", "id": "http://data.archaeology.link/data/ancientports/2790", "label": "Timne, near Ugurlu (2790)", "dateprops": [], "properties": {}, "geometry": {"type": "Point", "coordinates": [33.171, 41.96]}}, {"type": "Feature", "id": "http://data.archaeology.link/data/ancientports/422", "label": "near l\u2019Ampola? (422)", "dateprops": [], "properties": {}, "geometry": {"type": "Point", "coordinates": [0.72689, 40.80449]}}, {"type": "Feature", "id": "http://data.archaeology.link/data/ancientports/1336", "label": "Isle of Torcello, in the lagoon of Venice, Venezia, Venise (1336)", "dateprops": [], "properties": {}, "geometry": {"type": "Point", "coordinates": [12.4197, 45.4986]}}, {"type": "Feature", "id": "http://data.archaeology.link/data/ancientports/2803", "label": "near Kilimli (2803)", "dateprops": [], "properties": {}, "geometry": {"type": "Point", "coordinates": [31.82747, 41.48853]}}, {"type": "Feature", "id": "http://data.archaeology.link/data/ancientports/3807", "label": "Warka (3807)", "dateprops": [], "properties": {}, "geometry": {"type": "Point", "coordinates": [45.63782, 31.32216]}}, {"type": "Feature", "id": "http://data.archaeology.link/data/ancientports/2876", "label": "near Orhangazi, on lake Isnik G\u00f6l\u00fc, near Ilipinar Neolithic settlement (2876)", "dateprops": [], "properties": {}, "geometry": {"type": "Point", "coordinates": [29.2954, 40.4594]}}, {"type": "Feature", "id": "http://data.archaeology.link/data/ancientports/3242", "label": "Orhaniye, in the bay of Keci B\u00fck\u00fc (3242)", "dateprops": [], "properties": {}, "geometry": {"type": "Point", "coordinates": [28.1345, 36.7608]}}, {"type": "Feature", "id": "http://data.archaeology.link/data/ancientports/3402", "label": "Arsuz, near Ulucinar, on R Arsuz (3402)", "dateprops": [], "properties": {}, "geometry": {"type": "Point", "coordinates": [35.883, 36.413]}}, {"type": "Feature", "id": "http://data.archaeology.link/data/ancientports/1091", "label": "Broglio di Trebisacce  (1091)", "dateprops": [], "properties": {}, "geometry": {"type": "Point", "coordinates": [16.53806, 39.86511]}}, {"type": "Feature", "id": "http://data.archaeology.link/data/ancientports/1974", "label": "Kassiopi, north of Corfu. Antonine calls it an island which it is not (anymore?) today. (1974)", "dateprops": [], "properties": {}, "geometry": {"type": "Point", "coordinates": [19.923, 39.7899]}}, {"type": "Feature", "id": "http://data.archaeology.link/data/ancientports/457", "label": "Son Ferrandell-Olesa (457)", "dateprops": [], "properties": {}, "geometry": {"type": "Point", "coordinates": [2.55506, 39.7051]}}, {"type": "Feature", "id": "http://data.archaeology.link/data/ancientports/510", "label": "Brimeux (510)", "dateprops": [], "properties": {}, "geometry": {"type": "Point", "coordinates": [1.83675, 50.44604]}}, {"type": "Feature", "id": "http://data.archaeology.link/data/ancientports/1716", "label": "Limnionas (1716)", "dateprops": [], "properties": {}, "geometry": {"type": "Point", "coordinates": [24.2494, 38.2408]}}, {"type": "Feature", "id": "http://data.archaeology.link/data/ancientports/2863", "label": "Zeytin Burnu? (2863)", "dateprops": [], "properties": {}, "geometry": {"type": "Point", "coordinates": [29.79097, 40.74035]}}, {"type": "Feature", "id": "http://data.archaeology.link/data/ancientports/1820", "label": "? near Mount Athos (1820)", "dateprops": [], "properties": {}, "geometry": {"type": "Point", "coordinates": [24.25475, 40.08995]}}, {"type": "Feature", "id": "http://data.archaeology.link/data/ancientports/3936", "label": "Dekhela, Dikheila: Alexandria West (3936)", "dateprops": [], "properties": {}, "geometry": {"type": "Point", "coordinates": [29.8745, 31.19401]}}, {"type": "Feature", "id": "http://data.archaeology.link/data/ancientports/938", "label": "Tor San Lorenzo, at Porto Rutulo (938)", "dateprops": [], "properties": {}, "geometry": {"type": "Point", "coordinates": [12.5113, 41.5803]}}, {"type": "Feature", "id": "http://data.archaeology.link/data/ancientports/2503", "label": "Isaccea (2503)", "dateprops": [], "properties": {}, "geometry": {"type": "Point", "coordinates": [28.497, 45.2702]}}, {"type": "Feature", "id": "http://data.archaeology.link/data/ancientports/3559", "label": "Marsa Imbarak, Port Ghalib, Port Galibou, Jacotin locates Port Galibou at Marsa Mubarak and Port Blanc much further north, but Obied strongly suggests this was Leucos Limen (3559)", "dateprops": [], "properties": {}, "geometry": {"type": "Point", "coordinates": [34.634, 25.5309]}}, {"type": "Feature", "id": "http://data.archaeology.link/data/ancientports/1368_2", "label": "Dajla (1368_2)", "dateprops": [], "properties": {}, "geometry": {"type": "Point", "coordinates": [13.545, 45.357]}}, {"type": "Feature", "id": "http://data.archaeology.link/data/ancientports/1566", "label": "Isle of Kephalos (1566)", "dateprops": [], "properties": {}, "geometry": {"type": "Point", "coordinates": [20.8729, 38.9645]}}, {"type": "Feature", "id": "http://data.archaeology.link/data/ancientports/1320", "label": "near Comacchio (1320)", "dateprops": [], "properties": {}, "geometry": {"type": "Point", "coordinates": [12.11759, 44.72213]}}, {"type": "Feature", "id": "http://data.archaeology.link/data/ancientports/1935_5", "label": "Kokkinia (1935_5)", "dateprops": [], "properties": {}, "geometry": {"type": "Point", "coordinates": [21.722, 36.8119]}}, {"type": "Feature", "id": "http://data.archaeology.link/data/ancientports/1833", "label": "near Kariani (1833)", "dateprops": [], "properties": {}, "geometry": {"type": "Point", "coordinates": [23.9775, 40.72833]}}, {"type": "Feature", "id": "http://data.archaeology.link/data/ancientports/2801", "label": "Filyos, Hisar\u00f6n\u00fc, with a breakwater connected to the promontory (2801)", "dateprops": [], "properties": {}, "geometry": {"type": "Point", "coordinates": [32.0247, 41.57179]}}, {"type": "Feature", "id": "http://data.archaeology.link/data/ancientports/1362", "label": "Piran (1362)", "dateprops": [], "properties": {}, "geometry": {"type": "Point", "coordinates": [13.5638, 45.528]}}, {"type": "Feature", "id": "http://data.archaeology.link/data/ancientports/1325", "label": "Contarina, near Porto Viro (1325)", "dateprops": [], "properties": {}, "geometry": {"type": "Point", "coordinates": [12.22032, 45.02637]}}, {"type": "Feature", "id": "http://data.archaeology.link/data/ancientports/1109", "label": "Torre San Gregorio (1109)", "dateprops": [], "properties": {}, "geometry": {"type": "Point", "coordinates": [18.31, 39.8138]}}, {"type": "Feature", "id": "http://data.archaeology.link/data/ancientports/3057", "label": "Tochni Lakkia, port of Kalavasos-Tenta copper mines? (3057)", "dateprops": [], "properties": {}, "geometry": {"type": "Point", "coordinates": [33.327, 34.7191]}}, {"type": "Feature", "id": "http://data.archaeology.link/data/ancientports/2982", "label": "Kato Zakros  (2982)", "dateprops": [], "properties": {}, "geometry": {"type": "Point", "coordinates": [26.2614, 35.0983]}}, {"type": "Feature", "id": "http://data.archaeology.link/data/ancientports/2748", "label": "Bolaman, on R Bolaman (2748)", "dateprops": [], "properties": {}, "geometry": {"type": "Point", "coordinates": [37.5838, 41.0348]}}, {"type": "Feature", "id": "http://data.archaeology.link/data/ancientports/2259", "label": "Metokhi, on the isle of Chios (2259)", "dateprops": [], "properties": {}, "geometry": {"type": "Point", "coordinates": [25.9589, 38.4263]}}, {"type": "Feature", "id": "http://data.archaeology.link/data/ancientports/3968", "label": "Geziret Ishailah islet and reefs (3968)", "dateprops": [], "properties": {}, "geometry": {"type": "Point", "coordinates": [26.63923, 31.52012]}}, {"type": "Feature", "id": "http://data.archaeology.link/data/ancientports/1472", "label": "Uvala Vira, on the isle of Hvar (1472)", "dateprops": [], "properties": {}, "geometry": {"type": "Point", "coordinates": [16.42786, 43.1903]}}, {"type": "Feature", "id": "http://data.archaeology.link/data/ancientports/350", "label": "Algeciras, on Rio de la Miel (350)", "dateprops": [], "properties": {}, "geometry": {"type": "Point", "coordinates": [-5.44326, 36.12733]}}, {"type": "Feature", "id": "http://data.archaeology.link/data/ancientports/651", "label": "La Roque d'Odor, a landmark for seafarers, now destroyed (651)", "dateprops": [], "properties": {}, "geometry": {"type": "Point", "coordinates": [4.86028, 43.42962]}}, {"type": "Feature", "id": "http://data.archaeology.link/data/ancientports/1802_2", "label": "Kochi, near  Porto Karras, with Neolithic settlement (1802_2)", "dateprops": [], "properties": {}, "geometry": {"type": "Point", "coordinates": [23.788, 40.073]}}, {"type": "Feature", "id": "http://data.archaeology.link/data/ancientports/553", "label": "Neolithic settlement, oppidum and Roman fort at Le Yaudet, on R Leguer (553)", "dateprops": [], "properties": {}, "geometry": {"type": "Point", "coordinates": [-3.535, 48.7326]}}, {"type": "Feature", "id": "http://data.archaeology.link/data/ancientports/2308_1", "label": "Isles of Perigousa & Pakhia (2308_1)", "dateprops": [], "properties": {}, "geometry": {"type": "Point", "coordinates": [27.055, 36.575]}}, {"type": "Feature", "id": "http://data.archaeology.link/data/ancientports/3404_1", "label": "near Kale? or Konacik? (3404_1)", "dateprops": [], "properties": {}, "geometry": {"type": "Point", "coordinates": [35.7818, 36.2997]}}, {"type": "Feature", "id": "http://data.archaeology.link/data/ancientports/2380", "label": "Eski Fanar Burun? (2380)", "dateprops": [], "properties": {}, "geometry": {"type": "Point", "coordinates": [26.7018, 40.4194]}}, {"type": "Feature", "id": "http://data.archaeology.link/data/ancientports/3629", "label": "Assab? Near wadi Arsile, Harsile (3629)", "dateprops": [], "properties": {}, "geometry": {"type": "Point", "coordinates": [42.75543, 12.97338]}}, {"type": "Feature", "id": "http://data.archaeology.link/data/ancientports/3640", "label": "Hanish islands? (3640)", "dateprops": [], "properties": {}, "geometry": {"type": "Point", "coordinates": [42.7, 13.8]}}, {"type": "Feature", "id": "http://data.archaeology.link/data/ancientports/82", "label": "Stutfall Castle, near Lympne castle (82)", "dateprops": [], "properties": {}, "geometry": {"type": "Point", "coordinates": [1.0203, 51.0682]}}, {"type": "Feature", "id": "http://data.archaeology.link/data/ancientports/2941", "label": "Georgioupoli, near the outlet of R Almiros (2941)", "dateprops": [], "properties": {}, "geometry": {"type": "Point", "coordinates": [24.2598, 35.364]}}, {"type": "Feature", "id": "http://data.archaeology.link/data/ancientports/2715", "label": "Arhavi, on R Kabisre Deresi (2715)", "dateprops": [], "properties": {}, "geometry": {"type": "Point", "coordinates": [41.2967, 41.3536]}}, {"type": "Feature", "id": "http://data.archaeology.link/data/ancientports/3654", "label": "Roman naval base (?) at Khor Farasan, on Farasan Kebir island (3654)", "dateprops": [], "properties": {}, "geometry": {"type": "Point", "coordinates": [42.10419, 16.69746]}}, {"type": "Feature", "id": "http://data.archaeology.link/data/ancientports/1400", "label": "Vela Luka & Mala Luka, near Korintija, on the isle of Krk (1400)", "dateprops": [], "properties": {}, "geometry": {"type": "Point", "coordinates": [14.8034, 44.9864]}}, {"type": "Feature", "id": "http://data.archaeology.link/data/ancientports/2633", "label": "Temirnitskoye (2633)", "dateprops": [], "properties": {}, "geometry": {"type": "Point", "coordinates": [39.6737, 47.1948]}}, {"type": "Feature", "id": "http://data.archaeology.link/data/ancientports/3155", "label": "near the cape (3155)", "dateprops": [], "properties": {}, "geometry": {"type": "Point", "coordinates": [26.24889, 38.28871]}}, {"type": "Feature", "id": "http://data.archaeology.link/data/ancientports/3810_4", "label": "Dara island?  (3810_4)", "dateprops": [], "properties": {}, "geometry": {"type": "Point", "coordinates": [49.1088, 30.1008]}}, {"type": "Feature", "id": "http://data.archaeology.link/data/ancientports/1477", "label": "Porat bay, on the isle of Bisevo (1477)", "dateprops": [], "properties": {}, "geometry": {"type": "Point", "coordinates": [16.0042, 42.9828]}}, {"type": "Feature", "id": "http://data.archaeology.link/data/ancientports/2348", "label": "Isle of Carpathos, Karpathos, Kerpe (2348)", "dateprops": [], "properties": {}, "geometry": {"type": "Point", "coordinates": [27.12795, 35.58323]}}, {"type": "Feature", "id": "http://data.archaeology.link/data/ancientports/4132", "label": "south of La Louza (4132)", "dateprops": [], "properties": {}, "geometry": {"type": "Point", "coordinates": [11.0085, 35.0128]}}, {"type": "Feature", "id": "http://data.archaeology.link/data/ancientports/2971", "label": "due south of the isle of Psira (2971)", "dateprops": [], "properties": {}, "geometry": {"type": "Point", "coordinates": [25.8598, 35.1523]}}, {"type": "Feature", "id": "http://data.archaeology.link/data/ancientports/1276", "label": "Rodi Garganico (1276)", "dateprops": [], "properties": {}, "geometry": {"type": "Point", "coordinates": [15.89178, 41.93107]}}, {"type": "Feature", "id": "http://data.archaeology.link/data/ancientports/4292", "label": "Playa de la Ribera, in the South bay of Ceuta  (4292)", "dateprops": [], "properties": {}, "geometry": {"type": "Point", "coordinates": [-5.31791, 35.88337]}}, {"type": "Feature", "id": "http://data.archaeology.link/data/ancientports/2706_2", "label": "Kvemo Chaladidi, on R Rioni (2706_2)", "dateprops": [], "properties": {}, "geometry": {"type": "Point", "coordinates": [41.76, 42.226]}}, {"type": "Feature", "id": "http://data.archaeology.link/data/ancientports/560_6", "label": "Kervel, near Plonevez-Porzay, large fish processing factory (560_6)", "dateprops": [], "properties": {}, "geometry": {"type": "Point", "coordinates": [-4.2807, 48.1179]}}, {"type": "Feature", "id": "http://data.archaeology.link/data/ancientports/389", "label": "near Torre de la Horadada (389)", "dateprops": [], "properties": {}, "geometry": {"type": "Point", "coordinates": [-0.74344, 37.87659]}}, {"type": "Feature", "id": "http://data.archaeology.link/data/ancientports/15_1", "label": "Utrecht, Domplein, on R Kromme Rijn (15_1)", "dateprops": [], "properties": {}, "geometry": {"type": "Point", "coordinates": [5.1219, 52.0907]}}, {"type": "Feature", "id": "http://data.archaeology.link/data/ancientports/694", "label": "Cavaliere (694)", "dateprops": [], "properties": {}, "geometry": {"type": "Point", "coordinates": [6.43358, 43.14756]}}, {"type": "Feature", "id": "http://data.archaeology.link/data/ancientports/2850", "label": "Kadik\u00f6y in front of Istanbul, near R Ayirliksu (2850)", "dateprops": [], "properties": {}, "geometry": {"type": "Point", "coordinates": [29.022, 40.9924]}}, {"type": "Feature", "id": "http://data.archaeology.link/data/ancientports/1298", "label": "Cupra Marittima, near R Menocchia (1298)", "dateprops": [], "properties": {}, "geometry": {"type": "Point", "coordinates": [13.8534, 43.034]}}, {"type": "Feature", "id": "http://data.archaeology.link/data/ancientports/129_2", "label": "Roman fort at Pen Llwyn, Dyfed, on R Rheidol (129_2)", "dateprops": [], "properties": {}, "geometry": {"type": "Point", "coordinates": [-3.9856, 52.407]}}, {"type": "Feature", "id": "http://data.archaeology.link/data/ancientports/160", "label": "Caerlaverock Roman fort, and Roman camp at Ward Law, and oppidum on R Nith (160)", "dateprops": [], "properties": {}, "geometry": {"type": "Point", "coordinates": [-3.52396, 54.97562]}}, {"type": "Feature", "id": "http://data.archaeology.link/data/ancientports/3493", "label": "Sdot Yam, Caesarea's southern anchorage (3493)", "dateprops": [], "properties": {}, "geometry": {"type": "Point", "coordinates": [34.8872, 32.4908]}}, {"type": "Feature", "id": "http://data.archaeology.link/data/ancientports/1749", "label": "Kala Nera (1749)", "dateprops": [], "properties": {}, "geometry": {"type": "Point", "coordinates": [23.1202, 39.3044]}}, {"type": "Feature", "id": "http://data.archaeology.link/data/ancientports/2103", "label": "Naxos and Grotta Aplomata, on the isle of Naxos, Naksa (2103)", "dateprops": [], "properties": {}, "geometry": {"type": "Point", "coordinates": [25.377, 37.1059]}}, {"type": "Feature", "id": "http://data.archaeology.link/data/ancientports/748", "label": "St Florent, Strette (748)", "dateprops": [], "properties": {}, "geometry": {"type": "Point", "coordinates": [9.2933, 42.6752]}}, {"type": "Feature", "id": "http://data.archaeology.link/data/ancientports/1845", "label": "Buru Kala, on Lake Vistonis (1845)", "dateprops": [], "properties": {}, "geometry": {"type": "Point", "coordinates": [25.1059, 41.0859]}}, {"type": "Feature", "id": "http://data.archaeology.link/data/ancientports/476", "label": "Na Moltona islet (476)", "dateprops": [], "properties": {}, "geometry": {"type": "Point", "coordinates": [3.0104, 39.3033]}}, {"type": "Feature", "id": "http://data.archaeology.link/data/ancientports/373", "label": "Isle of Alboran, due south of Adra (373)", "dateprops": [], "properties": {}, "geometry": {"type": "Point", "coordinates": [-3.03252, 35.94899]}}, {"type": "Feature", "id": "http://data.archaeology.link/data/ancientports/372", "label": "Guardias Viejas (372)", "dateprops": [], "properties": {}, "geometry": {"type": "Point", "coordinates": [-2.82, 36.7]}}, {"type": "Feature", "id": "http://data.archaeology.link/data/ancientports/3434", "label": "Cheikh Zennad, on R Nahr Estouen, Akkar (3434)", "dateprops": [], "properties": {}, "geometry": {"type": "Point", "coordinates": [35.9865, 34.6048]}}, {"type": "Feature", "id": "http://data.archaeology.link/data/ancientports/3865_2", "label": "Salavattota, at outlet of R Daduru Oya, near Chilaw, on Sri Lanka island (3865_2)", "dateprops": [], "properties": {}, "geometry": {"type": "Point", "coordinates": [79.789, 7.613]}}, {"type": "Feature", "id": "http://data.archaeology.link/data/ancientports/2960_1", "label": "Chersonisos fish tank (2960_1)", "dateprops": [], "properties": {}, "geometry": {"type": "Point", "coordinates": [25.39345, 35.3233]}}, {"type": "Feature", "id": "http://data.archaeology.link/data/ancientports/475", "label": "Santanyi (475)", "dateprops": [], "properties": {}, "geometry": {"type": "Point", "coordinates": [3.14808, 39.32262]}}, {"type": "Feature", "id": "http://data.archaeology.link/data/ancientports/55", "label": "possible lighthouse at Scarborough  (55)", "dateprops": [], "properties": {}, "geometry": {"type": "Point", "coordinates": [-0.3877, 54.2872]}}, {"type": "Feature", "id": "http://data.archaeology.link/data/ancientports/4284", "label": "Emsa, Amsa, Kubia, Cudia Tebmain, possible fish processing factory and amphora kilns (4284)", "dateprops": [], "properties": {}, "geometry": {"type": "Point", "coordinates": [-5.23162, 35.52383]}}, {"type": "Feature", "id": "http://data.archaeology.link/data/ancientports/875", "label": "Cala del Barbiere, near Punta Ala, in front of the isle of Elba (875)", "dateprops": [], "properties": {}, "geometry": {"type": "Point", "coordinates": [10.74862, 42.80944]}}, {"type": "Feature", "id": "http://data.archaeology.link/data/ancientports/3837", "label": "Cape Jask (3837)", "dateprops": [], "properties": {}, "geometry": {"type": "Point", "coordinates": [57.766, 25.66]}}, {"type": "Feature", "id": "http://data.archaeology.link/data/ancientports/3007", "label": "Agios Pavlos, at Cape Melissa (3007)", "dateprops": [], "properties": {}, "geometry": {"type": "Point", "coordinates": [24.5653, 35.1052]}}, {"type": "Feature", "id": "http://data.archaeology.link/data/ancientports/2135", "label": "Stoloi, on the isle of Milos, Melos, Degirmenlik  (2135)", "dateprops": [], "properties": {}, "geometry": {"type": "Point", "coordinates": [24.4799, 36.6723]}}, {"type": "Feature", "id": "http://data.archaeology.link/data/ancientports/107", "label": "St Michael's Mount, Marazion, probably a major port for exporting tin extracted by streaming in the hills of Cornwall (107)", "dateprops": [], "properties": {}, "geometry": {"type": "Point", "coordinates": [-5.47766, 50.12079]}}, {"type": "Feature", "id": "http://data.archaeology.link/data/ancientports/1256", "label": "Mola di Bari (1256)", "dateprops": [], "properties": {}, "geometry": {"type": "Point", "coordinates": [17.0904, 41.066]}}, {"type": "Feature", "id": "http://data.archaeology.link/data/ancientports/2292", "label": "Pandeli, on the isle of Leros (2292)", "dateprops": [], "properties": {}, "geometry": {"type": "Point", "coordinates": [26.86503, 37.1461]}}, {"type": "Feature", "id": "http://data.archaeology.link/data/ancientports/2916_1", "label": "Kalafat, near the valleys, now silted up, of R Karamenderes and R Dumrek (2916_1)", "dateprops": [], "properties": {}, "geometry": {"type": "Point", "coordinates": [26.2314, 39.9478]}}, {"type": "Feature", "id": "http://data.archaeology.link/data/ancientports/566", "label": "Isle of Sein (566)", "dateprops": [], "properties": {}, "geometry": {"type": "Point", "coordinates": [-4.85389, 48.03514]}}, {"type": "Feature", "id": "http://data.archaeology.link/data/ancientports/1957", "label": "Psathopyrgos? (1957)", "dateprops": [], "properties": {}, "geometry": {"type": "Point", "coordinates": [21.884, 38.328]}}, {"type": "Feature", "id": "http://data.archaeology.link/data/ancientports/1625", "label": "Kolones, on the isle of Salamis (1625)", "dateprops": [], "properties": {}, "geometry": {"type": "Point", "coordinates": [23.44375, 37.88091]}}, {"type": "Feature", "id": "http://data.archaeology.link/data/ancientports/1448", "label": "Rogoznica, this place could be Scylax's Herakleia as it is near the Hyllis Prom. and Hyllus is a son of Hercules (1448)", "dateprops": [], "properties": {}, "geometry": {"type": "Point", "coordinates": [15.96458, 43.53063]}}, {"type": "Feature", "id": "http://data.archaeology.link/data/ancientports/2090", "label": "Ormos Lageri, inside Ormos Naousis on the isle of Paros, Bara (2090)", "dateprops": [], "properties": {}, "geometry": {"type": "Point", "coordinates": [25.2666, 37.1402]}}, {"type": "Feature", "id": "http://data.archaeology.link/data/ancientports/2329", "label": "near Lardos, on the isle of Rhodes  (2329)", "dateprops": [], "properties": {}, "geometry": {"type": "Point", "coordinates": [28.01949, 36.07214]}}, {"type": "Feature", "id": "http://data.archaeology.link/data/ancientports/1480", "label": "Gradac (1480)", "dateprops": [], "properties": {}, "geometry": {"type": "Point", "coordinates": [17.3414, 43.104]}}, {"type": "Feature", "id": "http://data.archaeology.link/data/ancientports/2298", "label": "Skalia, on the isle of Kalymnos  (2298)", "dateprops": [], "properties": {}, "geometry": {"type": "Point", "coordinates": [26.9531, 37.0375]}}, {"type": "Feature", "id": "http://data.archaeology.link/data/ancientports/1226", "label": "Marsaxlokk  (1226)", "dateprops": [], "properties": {}, "geometry": {"type": "Point", "coordinates": [14.54805, 35.83941]}}, {"type": "Feature", "id": "http://data.archaeology.link/data/ancientports/2742", "label": "Bulancak, at outlet of R Pazarsuyu (2742)", "dateprops": [], "properties": {}, "geometry": {"type": "Point", "coordinates": [38.17475, 40.94735]}}, {"type": "Feature", "id": "http://data.archaeology.link/data/ancientports/67_1", "label": "Martlesham (67_1)", "dateprops": [], "properties": {}, "geometry": {"type": "Point", "coordinates": [1.2804, 52.073]}}, {"type": "Feature", "id": "http://data.archaeology.link/data/ancientports/108", "label": "Isles of Scilly, west of Cornwall ; some believe these are the Cassiterides islands, but no tin is mined here ; many megaliths are found there (108)", "dateprops": [], "properties": {}, "geometry": {"type": "Point", "coordinates": [-6.32158, 49.92979]}},