{"type": "FeatureCollection", "id": "http://data.archaeology.link/data/ancientports/Quay_collection", "name": "Quay_collection", "features": [{"type": "Feature", "id": "http://data.archaeology.link/data/ancientports/3464", "label": "Roman port at Ras el-Shiq , near Sarafand, with fish tank & quarry west of the port (3464)", "properties": {}, "geometry": {"type": "Point", "coordinates": [35.2907, 33.4631]}}, {"type": "Feature", "id": "http://data.archaeology.link/data/ancientports/3294", "label": "Sicak Iskelesi, inside the bay near Kilincli (3294)", "properties": {}, "geometry": {"type": "Point", "coordinates": [29.7825, 36.1579]}}, {"type": "Feature", "id": "http://data.archaeology.link/data/ancientports/4078", "label": "not yet 'Magna' (4078)", "properties": {}, "geometry": {"type": "Point", "coordinates": [14.294, 32.6404]}}, {"type": "Feature", "id": "http://data.archaeology.link/data/ancientports/994", "label": "Roman villa at Posillipo, protected by row of pilae (994)", "properties": {}, "geometry": {"type": "Point", "coordinates": [14.1883, 40.793]}}, {"type": "Feature", "id": "http://data.archaeology.link/data/ancientports/624", "label": "Mandirac training walls, Le Castelou, on the Etang de Bages (624)", "properties": {}, "geometry": {"type": "Point", "coordinates": [3.0185, 43.1308]}}, {"type": "Feature", "id": "http://data.archaeology.link/data/ancientports/939", "label": "Lago di Nemi, with many Roman villas (939)", "properties": {}, "geometry": {"type": "Point", "coordinates": [12.7, 41.70552]}}, {"type": "Feature", "id": "http://data.archaeology.link/data/ancientports/1372_1", "label": "Sveti Martin (1372_1)", "properties": {}, "geometry": {"type": "Point", "coordinates": [13.59, 45.252]}}, {"type": "Feature", "id": "http://data.archaeology.link/data/ancientports/3429", "label": "Port of Amrit, near Tell Amrit, with temple of Melqart, Maabed, on R Nahr Amrit (3429)", "properties": {}, "geometry": {"type": "Point", "coordinates": [35.9025, 34.8333]}}, {"type": "Feature", "id": "http://data.archaeology.link/data/ancientports/1730", "label": "Naval base at Achilleion (1730)", "properties": {}, "geometry": {"type": "Point", "coordinates": [22.9631, 39.007]}}, {"type": "Feature", "id": "http://data.archaeology.link/data/ancientports/250", "label": "Lisbon, Nucleo Arqueologico, 21 rua dos Correeiros, in the basement of the Millennium Bank where a garum factory was located on the left bank of a local tributary of R  Tage flowing under the present day rua Augusta. Possible location of Avienus' Ophiusa. (250)", "properties": {}, "geometry": {"type": "Point", "coordinates": [-9.13724, 38.71006]}}, {"type": "Feature", "id": "http://data.archaeology.link/data/ancientports/2476", "label": "Cape Shabla, with Neolithic settlement (2476)", "properties": {}, "geometry": {"type": "Point", "coordinates": [28.607, 43.5393]}}, {"type": "Feature", "id": "http://data.archaeology.link/data/ancientports/829", "label": "Piazza Caricamento, Roman port of Genoa (829)", "properties": {}, "geometry": {"type": "Point", "coordinates": [8.9284, 44.411]}}, {"type": "Feature", "id": "http://data.archaeology.link/data/ancientports/1366_1", "label": "Katoro, Tiola (1366_1)", "properties": {}, "geometry": {"type": "Point", "coordinates": [13.5104, 45.4576]}}, {"type": "Feature", "id": "http://data.archaeology.link/data/ancientports/704", "label": "Roman naval base at Frejus, with one lighthouse at the Butte St Antoine and 3 landmarks: the Lanterne d'Auguste, the Triton Monument and the Lion de Mer islet in front of St Raphael (704)", "properties": {}, "geometry": {"type": "Point", "coordinates": [6.7405, 43.43132]}}, {"type": "Feature", "id": "http://data.archaeology.link/data/ancientports/4241", "label": "Trois \u00celots Hamdania, Ras el-Meskhouta, Roman fish processing factory (4241)", "properties": {}, "geometry": {"type": "Point", "coordinates": [2.2626, 36.6263]}}, {"type": "Feature", "id": "http://data.archaeology.link/data/ancientports/1989_2", "label": "Large breakwater between Plagia & Ligia, southern limit of a large port extending up to the Hellenistic bridge (1989_2)", "properties": {}, "geometry": {"type": "Point", "coordinates": [20.72528, 38.79403]}}, {"type": "Feature", "id": "http://data.archaeology.link/data/ancientports/711", "label": "Antibes, in the Anse Saint Roch near the Fort Carre. The entrance to the ancient port was near the peninsula of the Fort Carre. (711)", "properties": {}, "geometry": {"type": "Point", "coordinates": [7.12454, 43.58934]}}, {"type": "Feature", "id": "http://data.archaeology.link/data/ancientports/3296", "label": "Tersane K\u00f6y\u00fc on the isle of Kekova Adasi (3296)", "properties": {}, "geometry": {"type": "Point", "coordinates": [29.84666, 36.17192]}}, {"type": "Feature", "id": "http://data.archaeology.link/data/ancientports/3328", "label": "Selimiye, with possible ancient lighthouse, famous for its sedimentation (3328)", "properties": {}, "geometry": {"type": "Point", "coordinates": [31.38261, 36.76754]}}, {"type": "Feature", "id": "http://data.archaeology.link/data/ancientports/2227", "label": "Roman villa at Lazareta, at Pounta promontory, on the isle of Skiathos (2227)", "properties": {}, "geometry": {"type": "Point", "coordinates": [23.5002, 39.16]}}, {"type": "Feature", "id": "http://data.archaeology.link/data/ancientports/1377_1", "label": "Zaljev Maric (1377_1)", "properties": {}, "geometry": {"type": "Point", "coordinates": [13.7636, 44.9798]}}, {"type": "Feature", "id": "http://data.archaeology.link/data/ancientports/4136", "label": "Mahdia (4136)", "properties": {}, "geometry": {"type": "Point", "coordinates": [11.07931, 35.50562]}}, {"type": "Feature", "id": "http://data.archaeology.link/data/ancientports/3934_4", "label": "Antirhodos royal port incl. a pre-Hellenistic jetty (Rhacotis??) (3934_4)", "properties": {}, "geometry": {"type": "Point", "coordinates": [29.8982, 31.2045]}}, {"type": "Feature", "id": "http://data.archaeology.link/data/ancientports/4112", "label": "Ras Segala, North jetty with platform, in the gulf of Boughrara, near Henchir Zian (4112)", "properties": {}, "geometry": {"type": "Point", "coordinates": [10.92768, 33.53664]}}, {"type": "Feature", "id": "http://data.archaeology.link/data/ancientports/600", "label": "Bordeaux, from place de la Bourse to place Jean Jaures, on R Garonne (600)", "properties": {}, "geometry": {"type": "Point", "coordinates": [-0.5707, 44.84134]}}, {"type": "Feature", "id": "http://data.archaeology.link/data/ancientports/2226", "label": "Naval base at Skiathos, on the isle of Skiathos (2226)", "properties": {}, "geometry": {"type": "Point", "coordinates": [23.4894, 39.1616]}}, {"type": "Feature", "id": "http://data.archaeology.link/data/ancientports/851", "label": "Stazione Ferroviaria Pisa-San Rossore, near Pisa on R Arno (851)", "properties": {}, "geometry": {"type": "Point", "coordinates": [10.3823, 43.722]}}, {"type": "Feature", "id": "http://data.archaeology.link/data/ancientports/927", "label": "Porticus Aemilia, emporium on left bank of R Tiber at Marmorata, south of Ponte Sublico. Tucci claims it could be shipsheds (927)", "properties": {}, "geometry": {"type": "Point", "coordinates": [12.47459, 41.88244]}}, {"type": "Feature", "id": "http://data.archaeology.link/data/ancientports/1354_3", "label": "Tergeste, molo Venezia & Riva Grumula (1354_3)", "properties": {}, "geometry": {"type": "Point", "coordinates": [13.7616, 45.6469]}}, {"type": "Feature", "id": "http://data.archaeology.link/data/ancientports/2918", "label": "Falasarna, Phalasarna. There are only a few places protected from the western waves on the West coast of Crete;  the only good natural shelter from a nautical point of view is at Gramvousa (Balos Beach). However, the ancient port was identified as an artificial dug-out basin at the toe of a promontory located 1 km north of the city of Phalasarna, it was uplifted 6.5 m during the 365 AD earthquake (2918)", "properties": {}, "geometry": {"type": "Point", "coordinates": [23.56944, 35.51075]}}, {"type": "Feature", "id": "http://data.archaeology.link/data/ancientports/3428", "label": "Arwad, Arvad, Ruad (3428)", "properties": {}, "geometry": {"type": "Point", "coordinates": [35.8619, 34.85875]}}, {"type": "Feature", "id": "http://data.archaeology.link/data/ancientports/3432", "label": "Tabbat el-Hammam, ashlar breakwater on the beach at the toe of the modern one (3432)", "properties": {}, "geometry": {"type": "Point", "coordinates": [35.9298, 34.7472]}}, {"type": "Feature", "id": "http://data.archaeology.link/data/ancientports/4210", "label": "Skikda, SW of the railway station (4210)", "properties": {}, "geometry": {"type": "Point", "coordinates": [6.90649, 36.8833]}}, {"type": "Feature", "id": "http://data.archaeology.link/data/ancientports/771", "label": "Porto Malfatano (771)", "properties": {}, "geometry": {"type": "Point", "coordinates": [8.8031, 38.89873]}}, {"type": "Feature", "id": "http://data.archaeology.link/data/ancientports/3040", "label": "islets in front of Famagousta (3040)", "properties": {}, "geometry": {"type": "Point", "coordinates": [33.9545, 35.1271]}}, {"type": "Feature", "id": "http://data.archaeology.link/data/ancientports/881", "label": "Roman villa at Santa Liberata, on the peninsula of Argentario (881)", "properties": {}, "geometry": {"type": "Point", "coordinates": [11.15268, 42.43656]}}, {"type": "Feature", "id": "http://data.archaeology.link/data/ancientports/1524", "label": "Vlora, Valona, would be a better landing place for Cesar than the outlet of R Palasa (1524)", "properties": {}, "geometry": {"type": "Point", "coordinates": [19.4832, 40.4508]}}, {"type": "Feature", "id": "http://data.archaeology.link/data/ancientports/397", "label": "Roman embarcadero de la Albufereta, near Tossal de Manises and near Tossal de Les Basses, in Alicante (397)", "properties": {}, "geometry": {"type": "Point", "coordinates": [-0.44328, 38.36434]}}, {"type": "Feature", "id": "http://data.archaeology.link/data/ancientports/4111", "label": "Ersifet, Errysifet, two block alignments near quarry (4111)", "properties": {}, "geometry": {"type": "Point", "coordinates": [10.945, 33.5599]}}, {"type": "Feature", "id": "http://data.archaeology.link/data/ancientports/3105", "label": "Eski Stambul south of Dalyan, Dalayank\u00f6y (3105)", "properties": {}, "geometry": {"type": "Point", "coordinates": [26.1412, 39.7576]}}, {"type": "Feature", "id": "http://data.archaeology.link/data/ancientports/3289", "label": "Tepecik hill, near Gelemis, with ancient lighthouse (3289)", "properties": {}, "geometry": {"type": "Point", "coordinates": [29.315, 36.265]}}, {"type": "Feature", "id": "http://data.archaeology.link/data/ancientports/884", "label": "Porto, on the isle of Giglio, with Roman mole under the modern breakwater (884)", "properties": {}, "geometry": {"type": "Point", "coordinates": [10.9218, 42.3601]}}, {"type": "Feature", "id": "http://data.archaeology.link/data/ancientports/2447", "label": "Sozopol, port located between St Kirik island and Sozopol old town at Cape Skamni, with ancient lighthouse on isle of St Yvan, with submerged BA settlement (2447)", "properties": {}, "geometry": {"type": "Point", "coordinates": [27.69238, 42.42436]}}, {"type": "Feature", "id": "http://data.archaeology.link/data/ancientports/1342_1", "label": "Roman cistern of Canal de San Felice, at Ca'Ballarin, near Lio Piccolo (1342_1)", "properties": {}, "geometry": {"type": "Point", "coordinates": [12.47525, 45.48296]}}, {"type": "Feature", "id": "http://data.archaeology.link/data/ancientports/1047_2", "label": "Scoglio Galera, near Torre Sant'Irene (1047_2)", "properties": {}, "geometry": {"type": "Point", "coordinates": [15.9994, 38.7254]}}, {"type": "Feature", "id": "http://data.archaeology.link/data/ancientports/3373_1", "label": "Ayas near Yemiskumu, former island now connected to mainland (3373_1)", "properties": {}, "geometry": {"type": "Point", "coordinates": [34.1739, 36.4812]}}, {"type": "Feature", "id": "http://data.archaeology.link/data/ancientports/1126", "label": "Banchinamento Orsi, on R Cantera, in Augusta harbour, Scylax locates Megaris on R Simaithos, now R Simeto, possibly Paterno (1126)", "properties": {}, "geometry": {"type": "Point", "coordinates": [15.18374, 37.20577]}}, {"type": "Feature", "id": "http://data.archaeology.link/data/ancientports/1670", "label": "Anthidona (1670)", "properties": {}, "geometry": {"type": "Point", "coordinates": [23.4459, 38.5009]}}, {"type": "Feature", "id": "http://data.archaeology.link/data/ancientports/2221", "label": "North coast of the isle of Lesbos, Lesvos (2221)", "properties": {}, "geometry": {"type": "Point", "coordinates": [26.30327, 39.37386]}}, {"type": "Feature", "id": "http://data.archaeology.link/data/ancientports/3321", "label": "south of Antalya airport, near D\u00fcden Cayi waterfalls (3321)", "properties": {}, "geometry": {"type": "Point", "coordinates": [30.784, 36.85]}}, {"type": "Feature", "id": "http://data.archaeology.link/data/ancientports/1943", "label": "Ano Kalo Nero (1943)", "properties": {}, "geometry": {"type": "Point", "coordinates": [21.6993, 37.3318]}}, {"type": "Feature", "id": "http://data.archaeology.link/data/ancientports/1171", "label": "Mazara del Vallo, on R Mazara (1171)", "properties": {}, "geometry": {"type": "Point", "coordinates": [12.58761, 37.64421]}}, {"type": "Feature", "id": "http://data.archaeology.link/data/ancientports/1378", "label": "Roman villa at Dragonera, near Peroj, with submerged BA settlement at Sveti Grgur (1378)", "properties": {}, "geometry": {"type": "Point", "coordinates": [13.7731, 44.9658]}}, {"type": "Feature", "id": "http://data.archaeology.link/data/ancientports/428", "label": "Tarragona, quay possibly located along Carrer de Smith, near R Francoli (428)", "properties": {}, "geometry": {"type": "Point", "coordinates": [1.24534, 41.11196]}}, {"type": "Feature", "id": "http://data.archaeology.link/data/ancientports/4226", "label": "Cape Djinet (4226)", "properties": {}, "geometry": {"type": "Point", "coordinates": [3.7183, 36.872]}}, {"type": "Feature", "id": "http://data.archaeology.link/data/ancientports/2096", "label": "Krotiri, Paroikia Bay, on the isle of Paros, Bara  (2096)", "properties": {}, "geometry": {"type": "Point", "coordinates": [25.1483, 37.0844]}}, {"type": "Feature", "id": "http://data.archaeology.link/data/ancientports/1743", "label": "Aivaliotika, on R Xirias (1743)", "properties": {}, "geometry": {"type": "Point", "coordinates": [22.93, 39.35]}}, {"type": "Feature", "id": "http://data.archaeology.link/data/ancientports/1628", "label": "Le Piree, The Piraeus, with a possible lighthouse at Themistocles' tomb (1628)", "properties": {}, "geometry": {"type": "Point", "coordinates": [23.6379, 37.9399]}}, {"type": "Feature", "id": "http://data.archaeology.link/data/ancientports/3581", "label": "Medinet el-Haras, 4 km south of Bender el-Kebir inside the gulf of Ras Banas and on the Tropic of Cancer. Pliny is most accurate as he indicates that there is no shadow at noon on the day of summer solstice, which is the definition of the tropic located at 23\u00b026\u2019 of latitude. The present latitude of Berenike is 23\u00b056\u2019 and it is still a port today. \r\nWith probable quaywall (Trench 7) and possible ancient lighthouse. Roman forts at Siket and at wadi Kalalat. (3581)", "properties": {}, "geometry": {"type": "Point", "coordinates": [35.4757, 23.9116]}}, {"type": "Feature", "id": "http://data.archaeology.link/data/ancientports/1372", "label": "Roman villa Mozaik at Busuja, Bossolo, near Cervem, Cervar, with fish tank (1372)", "properties": {}, "geometry": {"type": "Point", "coordinates": [13.58061, 45.26257]}}, {"type": "Feature", "id": "http://data.archaeology.link/data/ancientports/1844_1", "label": "Avdira, in Thrace, at Agios Giannis (1844_1)", "properties": {}, "geometry": {"type": "Point", "coordinates": [24.9884, 40.9355]}}, {"type": "Feature", "id": "http://data.archaeology.link/data/ancientports/2045", "label": "Otzia Bay, on the isle of Kea, M\u00fcrted (2045)", "properties": {}, "geometry": {"type": "Point", "coordinates": [24.3516, 37.6768]}}, {"type": "Feature", "id": "http://data.archaeology.link/data/ancientports/4165", "label": "about 10 km SW of modern port of Sidi Daoud, with quarry (4165)", "properties": {}, "geometry": {"type": "Point", "coordinates": [10.8369, 36.96584]}}, {"type": "Feature", "id": "http://data.archaeology.link/data/ancientports/4133", "label": "Ras Boutria, jetty with platform perpandicular to the coast (4133)", "properties": {}, "geometry": {"type": "Point", "coordinates": [11.02904, 35.08168]}}, {"type": "Feature", "id": "http://data.archaeology.link/data/ancientports/4175", "label": "Carthago, rectangular commercial port, near Phoenician Tophet of Salammb\u00f4 (4175)", "properties": {}, "geometry": {"type": "Point", "coordinates": [10.325, 36.8415]}}, {"type": "Feature", "id": "http://data.archaeology.link/data/ancientports/895", "label": "Roman villa Pian di Spille, near R Marta at Voltone (895)", "properties": {}, "geometry": {"type": "Point", "coordinates": [11.6729, 42.256]}}, {"type": "Feature", "id": "http://data.archaeology.link/data/ancientports/191_3", "label": "Roman villa near Playa de Area, on Ria de Viveiro (191_3)", "properties": {}, "geometry": {"type": "Point", "coordinates": [-7.58292, 43.69232]}}, {"type": "Feature", "id": "http://data.archaeology.link/data/ancientports/4240", "label": "Roman villa at Thalefsa (4240)", "properties": {}, "geometry": {"type": "Point", "coordinates": [2.3187, 36.6396]}}, {"type": "Feature", "id": "http://data.archaeology.link/data/ancientports/3214", "label": "G\u00fcm\u00fcsl\u00fck, Dogu Limani (3214)", "properties": {}, "geometry": {"type": "Point", "coordinates": [27.23331, 37.05476]}}, {"type": "Feature", "id": "http://data.archaeology.link/data/ancientports/980", "label": "Capo Miseno, west of Naples (980)", "properties": {}, "geometry": {"type": "Point", "coordinates": [14.085, 40.79]}}, {"type": "Feature", "id": "http://data.archaeology.link/data/ancientports/732", "label": "Roman villa of Piantarella, near Petit Sperone beach, in front of the Lavezzi islands (732)", "properties": {}, "geometry": {"type": "Point", "coordinates": [9.2211, 41.3746]}}, {"type": "Feature", "id": "http://data.archaeology.link/data/ancientports/3386", "label": "3 names for one single place, according to Arnaud, near Cape Karatas Fener Burnu (3386)", "properties": {}, "geometry": {"type": "Point", "coordinates": [35.3374, 36.5427]}}, {"type": "Feature", "id": "http://data.archaeology.link/data/ancientports/4062", "label": "Syrte, Sirte, Marsa Zaafran (4062)", "properties": {}, "geometry": {"type": "Point", "coordinates": [16.58271, 31.21216]}}, {"type": "Feature", "id": "http://data.archaeology.link/data/ancientports/1356", "label": "Punta Sottile (1356)", "properties": {}, "geometry": {"type": "Point", "coordinates": [13.71802, 45.60617]}}, {"type": "Feature", "id": "http://data.archaeology.link/data/ancientports/3173", "label": "West side of Panayirdag hill, near Selcuk, on R K\u00fcc\u00fck Menderes (3173)", "properties": {}, "geometry": {"type": "Point", "coordinates": [27.332, 37.944]}}, {"type": "Feature", "id": "http://data.archaeology.link/data/ancientports/3935", "label": "Ras el-Teen, Ras el-Tin, before the heptastadion was built, this was an island quite similar to Tyre, many submerged structures are described by Jondet (3935)", "properties": {}, "geometry": {"type": "Point", "coordinates": [29.8573, 31.193]}}, {"type": "Feature", "id": "http://data.archaeology.link/data/ancientports/16", "label": "Vechten, on R Kromme Rijn (16)", "properties": {}, "geometry": {"type": "Point", "coordinates": [5.16556, 52.05611]}}, {"type": "Feature", "id": "http://data.archaeology.link/data/ancientports/3806", "label": "Tell el-Muqayyar, with 'two off-river basins enclosed within the walls of Ur' acc. to Blackman (1982, p92) (3806)", "properties": {}, "geometry": {"type": "Point", "coordinates": [46.10306, 30.9625]}}, {"type": "Feature", "id": "http://data.archaeology.link/data/ancientports/4077", "label": "not 'Magna' anymore (4077)", "properties": {}, "geometry": {"type": "Point", "coordinates": [14.298, 32.6382]}}, {"type": "Feature", "id": "http://data.archaeology.link/data/ancientports/991", "label": "Pozzuoli, Pouzzoles, Puteoles, in the Campi Flegrei volcano district, pilae of arched mole are under modern breakwater (Molo Caligoliano) (991)", "properties": {}, "geometry": {"type": "Point", "coordinates": [14.1154, 40.8216]}}, {"type": "Feature", "id": "http://data.archaeology.link/data/ancientports/3459", "label": "Sa\u00efda, Saida (3459)", "properties": {}, "geometry": {"type": "Point", "coordinates": [35.36828, 33.5645]}}, {"type": "Feature", "id": "http://data.archaeology.link/data/ancientports/1733", "label": "Pigadi (1733)", "properties": {}, "geometry": {"type": "Point", "coordinates": [22.98, 39.0355]}}, {"type": "Feature", "id": "http://data.archaeology.link/data/ancientports/1374_1", "label": "Sorna (1374_1)", "properties": {}, "geometry": {"type": "Point", "coordinates": [13.5895, 45.1997]}}, {"type": "Feature", "id": "http://data.archaeology.link/data/ancientports/2220", "label": "Mithimna on the isle of Lesbos, Lesvos (2220)", "properties": {}, "geometry": {"type": "Point", "coordinates": [26.1676, 39.36893]}}, {"type": "Feature", "id": "http://data.archaeology.link/data/ancientports/1354_2", "label": "Tergeste, Roman villa at Piazzetta Santa Lucia (1354_2)", "properties": {}, "geometry": {"type": "Point", "coordinates": [13.7664, 45.647]}}, {"type": "Feature", "id": "http://data.archaeology.link/data/ancientports/3126", "label": "Karadag, near Bademli, island now connected to mainland (3126)", "properties": {}, "geometry": {"type": "Point", "coordinates": [26.8121, 39.0395]}}, {"type": "Feature", "id": "http://data.archaeology.link/data/ancientports/644", "label": "Le Carrelet (644)", "properties": {}, "geometry": {"type": "Point", "coordinates": [4.48446, 43.539]}}, {"type": "Feature", "id": "http://data.archaeology.link/data/ancientports/3274_1", "label": "Between Zeytinli and Seytan islands (3274_1)", "properties": {}, "geometry": {"type": "Point", "coordinates": [28.9303, 36.6966]}}, {"type": "Feature", "id": "http://data.archaeology.link/data/ancientports/4085", "label": "Tripoli (4085)", "properties": {}, "geometry": {"type": "Point", "coordinates": [13.17867, 32.90134]}}, {"type": "Feature", "id": "http://data.archaeology.link/data/ancientports/3463", "label": "Phoenician port at Ras al-Qantara, near Sarafand (3463)", "properties": {}, "geometry": {"type": "Point", "coordinates": [35.2978, 33.4647]}}, {"type": "Feature", "id": "http://data.archaeology.link/data/ancientports/924", "label": "on left bank of R Tiber, at Ponte Marconi (924)", "properties": {}, "geometry": {"type": "Point", "coordinates": [12.47127, 41.85995]}}, {"type": "Feature", "id": "http://data.archaeology.link/data/ancientports/3347", "label": "Mamure Castle, on Anamur Cayi (3347)", "properties": {}, "geometry": {"type": "Point", "coordinates": [32.8945, 36.081]}}, {"type": "Feature", "id": "http://data.archaeology.link/data/ancientports/1475", "label": "Prirovo, Vis, on the isle of Vis (1475)", "properties": {}, "geometry": {"type": "Point", "coordinates": [16.187, 43.063]}}, {"type": "Feature", "id": "http://data.archaeology.link/data/ancientports/3274_3", "label": "G\u00f6cek island (3274_3)", "properties": {}, "geometry": {"type": "Point", "coordinates": [28.9358, 36.7277]}}, {"type": "Feature", "id": "http://data.archaeology.link/data/ancientports/1662", "label": "Skala Oropou (1662)", "properties": {}, "geometry": {"type": "Point", "coordinates": [23.786, 38.3219]}}, {"type": "Feature", "id": "http://data.archaeology.link/data/ancientports/1008_1", "label": "Roman villa at Punta Campanella (1008_1)", "properties": {}, "geometry": {"type": "Point", "coordinates": [14.3244, 40.5692]}}, {"type": "Feature", "id": "http://data.archaeology.link/data/ancientports/1379", "label": "Roman villa in bay of Verige, on the isles of Brioni, Brijuni (1379)", "properties": {}, "geometry": {"type": "Point", "coordinates": [13.77436, 44.9098]}}, {"type": "Feature", "id": "http://data.archaeology.link/data/ancientports/3377", "label": "Viransehir, Mezitli, west of Mersin, on R Mezitli (3377)", "properties": {}, "geometry": {"type": "Point", "coordinates": [34.54205, 36.73882]}}, {"type": "Feature", "id": "http://data.archaeology.link/data/ancientports/3492", "label": "Caesarea Maritima, inner port, with pre-Herodian 'round tower' (3492)", "properties": {}, "geometry": {"type": "Point", "coordinates": [34.8913, 32.5015]}}, {"type": "Feature", "id": "http://data.archaeology.link/data/ancientports/914", "label": "Porto di Traiano, near the airport of Fiumicino. The harbour basin is on the Sforza property and its water level was raised 3 m in the early 20th century, this hides and protects all ancient structures, except warehouses (914)", "properties": {}, "geometry": {"type": "Point", "coordinates": [12.2626, 41.77994]}}, {"type": "Feature", "id": "http://data.archaeology.link/data/ancientports/1339", "label": "Altino (1339)", "properties": {}, "geometry": {"type": "Point", "coordinates": [12.4077, 45.5428]}}, {"type": "Feature", "id": "http://data.archaeology.link/data/ancientports/1701", "label": "Agios Stefanos, south of Chalkis, on Euripe strait (1701)", "properties": {}, "geometry": {"type": "Point", "coordinates": [23.6098, 38.45074]}}, {"type": "Feature", "id": "http://data.archaeology.link/data/ancientports/3281", "label": "Isle of Gemiler Adasi, Saint Nikolo island, pirates' stronghold attacked by Pompey in 67 BC (3281)", "properties": {}, "geometry": {"type": "Point", "coordinates": [29.0684, 36.5547]}}, {"type": "Feature", "id": "http://data.archaeology.link/data/ancientports/4161", "label": "Koudiat el-Guerria, near Ras el-Ahmar (4161)", "properties": {}, "geometry": {"type": "Point", "coordinates": [10.908, 37.0463]}}, {"type": "Feature", "id": "http://data.archaeology.link/data/ancientports/1384", "label": "Roman villa at Vizula, near Medulin (1384)", "properties": {}, "geometry": {"type": "Point", "coordinates": [13.9217, 44.8184]}}, {"type": "Feature", "id": "http://data.archaeology.link/data/ancientports/22", "label": "Xanten, Arch\u00e4ologischen Park, on R Rhein (22)", "properties": {}, "geometry": {"type": "Point", "coordinates": [6.4467, 51.6698]}}, {"type": "Feature", "id": "http://data.archaeology.link/data/ancientports/3934_7", "label": "North-west port, near Qait Bey fortress (3934_7)", "properties": {}, "geometry": {"type": "Point", "coordinates": [29.885, 31.2115]}}, {"type": "Feature", "id": "http://data.archaeology.link/data/ancientports/2961", "label": "Malia, Mallia, with ancient port possibly inside lagoon (2961)", "properties": {}, "geometry": {"type": "Point", "coordinates": [25.485, 35.2944]}}, {"type": "Feature", "id": "http://data.archaeology.link/data/ancientports/675", "label": "Cassis (675)", "properties": {}, "geometry": {"type": "Point", "coordinates": [5.53902, 43.21411]}}, {"type": "Feature", "id": "http://data.archaeology.link/data/ancientports/1176", "label": "Mozia, on the isle of San Pantaleo, a causeway connects the island to the continent, but the 52x37 m basin was not a port (1176)", "properties": {}, "geometry": {"type": "Point", "coordinates": [12.466, 37.8635]}}, {"type": "Feature", "id": "http://data.archaeology.link/data/ancientports/1361", "label": "Roman villa at Simonov Zaljev, St Simon's Bay, Izola (1361)", "properties": {}, "geometry": {"type": "Point", "coordinates": [13.64544, 45.53339]}}, {"type": "Feature", "id": "http://data.archaeology.link/data/ancientports/4279", "label": "Melilla, east cabo de Tres Forcas (4279)", "properties": {}, "geometry": {"type": "Point", "coordinates": [-2.93484, 35.29143]}}, {"type": "Feature", "id": "http://data.archaeology.link/data/ancientports/4097", "label": "El-Mdeina, near Allouet el-Gounna, with 600 m quaywall (4097)", "properties": {}, "geometry": {"type": "Point", "coordinates": [11.437, 33.1803]}}, {"type": "Feature", "id": "http://data.archaeology.link/data/ancientports/3864", "label": "Pattanam, near R Periyar (3864)", "properties": {}, "geometry": {"type": "Point", "coordinates": [76.2093, 10.1568]}}, {"type": "Feature", "id": "http://data.archaeology.link/data/ancientports/1009", "label": "Bagni di Tiberio, near Marina Grande on the isle of Capri, with lighthouse at Roman villa Jovis (1009)", "properties": {}, "geometry": {"type": "Point", "coordinates": [14.23659, 40.55769]}}, {"type": "Feature", "id": "http://data.archaeology.link/data/ancientports/1341", "label": "in Scanello canal, near Treporti (1341)", "properties": {}, "geometry": {"type": "Point", "coordinates": [12.43885, 45.46739]}}, {"type": "Feature", "id": "http://data.archaeology.link/data/ancientports/3878", "label": "Tell Abu Seifa, Abou Seify, near Qantara (3878)", "properties": {}, "geometry": {"type": "Point", "coordinates": [32.3526, 30.85967]}}, {"type": "Feature", "id": "http://data.archaeology.link/data/ancientports/3934_6", "label": "Western ports and shipyards (3934_6)", "properties": {}, "geometry": {"type": "Point", "coordinates": [29.8874, 31.2051]}}, {"type": "Feature", "id": "http://data.archaeology.link/data/ancientports/667", "label": "Marseille, Vieux Port, quays of the Corne du port antique (667)", "properties": {}, "geometry": {"type": "Point", "coordinates": [5.37491, 43.29763]}}, {"type": "Feature", "id": "http://data.archaeology.link/data/ancientports/4189", "label": "Bizerte, although no archaeological evidence was found, it is suggested the present fishing port is the archaic port because of Dio Cassius' story (4189)", "properties": {}, "geometry": {"type": "Point", "coordinates": [9.8749, 37.2773]}}, {"type": "Feature", "id": "http://data.archaeology.link/data/ancientports/906", "label": "Castello Santa Severa, canal-port, at outlet of R Caolino (906)", "properties": {}, "geometry": {"type": "Point", "coordinates": [11.9565, 42.0152]}}, {"type": "Feature", "id": "http://data.archaeology.link/data/ancientports/1859", "label": "Kechries (1859)", "properties": {}, "geometry": {"type": "Point", "coordinates": [22.9945, 37.88286]}}, {"type": "Feature", "id": "http://data.archaeology.link/data/ancientports/1747", "label": "Platanidia (1747)", "properties": {}, "geometry": {"type": "Point", "coordinates": [23.0487, 39.3144]}}, {"type": "Feature", "id": "http://data.archaeology.link/data/ancientports/649", "label": "Ulmet (649)", "properties": {}, "geometry": {"type": "Point", "coordinates": [4.63454, 43.46567]}}, {"type": "Feature", "id": "http://data.archaeology.link/data/ancientports/2406", "label": "Yenikapi, discovered in 2004, with Neolithic settlement, at ancient outlet of R Bayrampasa (2406)", "properties": {}, "geometry": {"type": "Point", "coordinates": [28.9518, 41.006]}}, {"type": "Feature", "id": "http://data.archaeology.link/data/ancientports/929", "label": "at toe of Aventino hill (929)", "properties": {}, "geometry": {"type": "Point", "coordinates": [12.47953, 41.88625]}}, {"type": "Feature", "id": "http://data.archaeology.link/data/ancientports/4321", "label": "Tchemmich hill, 5 km east of Larache, very large Roman fish processing factory and possible salt production and amphora kilns on wadi Loukkos (4321)", "properties": {}, "geometry": {"type": "Point", "coordinates": [-6.1086, 35.1967]}}, {"type": "Feature", "id": "http://data.archaeology.link/data/ancientports/3922_1", "label": "Giza, Gizeh, in front of the Sphinx temple (3922_1)", "properties": {}, "geometry": {"type": "Point", "coordinates": [31.139, 29.9747]}}, {"type": "Feature", "id": "http://data.archaeology.link/data/ancientports/3484", "label": "Athlit, Atlit, with ancient lighthouse(s) (3484)", "properties": {}, "geometry": {"type": "Point", "coordinates": [34.93485, 32.70715]}}, {"type": "Feature", "id": "http://data.archaeology.link/data/ancientports/1331", "label": "Isola Poveglia (1331)", "properties": {}, "geometry": {"type": "Point", "coordinates": [12.33118, 45.38365]}}, {"type": "Feature", "id": "http://data.archaeology.link/data/ancientports/2214", "label": "NW of the isle of Lesbos, Lesvos (2214)", "properties": {}, "geometry": {"type": "Point", "coordinates": [26.02214, 39.28795]}}, {"type": "Feature", "id": "http://data.archaeology.link/data/ancientports/1104", "label": "Torre Ovo  (1104)", "properties": {}, "geometry": {"type": "Point", "coordinates": [17.50013, 40.30372]}}, {"type": "Feature", "id": "http://data.archaeology.link/data/ancientports/1734", "label": "Nies, with submerged BA settlement (1734)", "properties": {}, "geometry": {"type": "Point", "coordinates": [22.94, 39.1127]}}, {"type": "Feature", "id": "http://data.archaeology.link/data/ancientports/2187", "label": "on North side of Mytilini, on the isle of Lesbos, Lesvos; connected to the South port by Euripos canal (2187)", "properties": {}, "geometry": {"type": "Point", "coordinates": [26.55641, 39.11315]}}, {"type": "Feature", "id": "http://data.archaeology.link/data/ancientports/2233", "label": "Skopelos, on the isle of Skopelos (2233)", "properties": {}, "geometry": {"type": "Point", "coordinates": [23.7285, 39.1246]}}, {"type": "Feature", "id": "http://data.archaeology.link/data/ancientports/854", "label": "Santo Stefano ai Lupi, Livorno. This port was connected to the city of Pisa by a series of marshes. A lighthouse was on the Secche della Meloria (854)", "properties": {}, "geometry": {"type": "Point", "coordinates": [10.3343, 43.5733]}}, {"type": "Feature", "id": "http://data.archaeology.link/data/ancientports/3488", "label": "Dor, Dora, Nahsholim Bay, South Bay (3488)", "properties": {}, "geometry": {"type": "Point", "coordinates": [34.91683, 32.61595]}}, {"type": "Feature", "id": "http://data.archaeology.link/data/ancientports/4243", "label": "Cherchel, western basin (4243)", "properties": {}, "geometry": {"type": "Point", "coordinates": [2.18758, 36.61011]}}, {"type": "Feature", "id": "http://data.archaeology.link/data/ancientports/4188", "label": "Quarry at R'mel (4188)", "properties": {}, "geometry": {"type": "Point", "coordinates": [9.9773, 37.2486]}}, {"type": "Feature", "id": "http://data.archaeology.link/data/ancientports/4144", "label": "Sousse, large breakwater north of modern port (4144)", "properties": {}, "geometry": {"type": "Point", "coordinates": [10.6439, 35.8316]}}, {"type": "Feature", "id": "http://data.archaeology.link/data/ancientports/3945", "label": "Abusir, near Burg el-Arab, Roman canal-port located between east jetty near Plinthine and ancient west bridge over canal  (3945)", "properties": {}, "geometry": {"type": "Point", "coordinates": [29.52302, 30.93973]}}, {"type": "Feature", "id": "http://data.archaeology.link/data/ancientports/2398", "label": "Great harbour, Avcilar, on Lake K\u00fcc\u00fckcekmece, with ancient lighthouse (2398)", "properties": {}, "geometry": {"type": "Point", "coordinates": [28.739, 41.0133]}}, {"type": "Feature", "id": "http://data.archaeology.link/data/ancientports/1245_1", "label": "San Giovanni near Lecce (1245_1)", "properties": {}, "geometry": {"type": "Point", "coordinates": [18.3169, 40.3733]}}, {"type": "Feature", "id": "http://data.archaeology.link/data/ancientports/1453", "label": "Tarce, near Divulje (1453)", "properties": {}, "geometry": {"type": "Point", "coordinates": [16.2926, 43.5244]}}, {"type": "Feature", "id": "http://data.archaeology.link/data/ancientports/621", "label": "Narbonne, possibly at La Mediatheque, Saint Loup Ouest (621)", "properties": {}, "geometry": {"type": "Point", "coordinates": [3.0142, 43.1801]}}, {"type": "Feature", "id": "http://data.archaeology.link/data/ancientports/4169", "label": "Sidi Ra\u00efs, near Mraissa, Marisa (4169)", "properties": {}, "geometry": {"type": "Point", "coordinates": [10.55205, 36.7781]}}, {"type": "Feature", "id": "http://data.archaeology.link/data/ancientports/3862_3", "label": "Lothal, on R Bhogavo-Sabarmati, a fresh-water reservoir or a harbour basin? (3862_3)", "properties": {}, "geometry": {"type": "Point", "coordinates": [72.2499, 22.5229]}}, {"type": "Feature", "id": "http://data.archaeology.link/data/ancientports/4162", "label": "Essalhi bay, Borj Guelib, north of modern port of Sidi Daoud-Thonara (4162)", "properties": {}, "geometry": {"type": "Point", "coordinates": [10.9082, 37.0331]}}, {"type": "Feature", "id": "http://data.archaeology.link/data/ancientports/983", "label": "Punta Sarparella, concrete jetty within the harbour (983)", "properties": {}, "geometry": {"type": "Point", "coordinates": [14.0829, 40.79024]}}, {"type": "Feature", "id": "http://data.archaeology.link/data/ancientports/1359", "label": "Koper, Capodistria (1359)", "properties": {}, "geometry": {"type": "Point", "coordinates": [13.7238, 45.54683]}}, {"type": "Feature", "id": "http://data.archaeology.link/data/ancientports/181_1", "label": "Istmo de la Magdalena, Santander (181_1)", "properties": {}, "geometry": {"type": "Point", "coordinates": [-3.7728, 43.4674]}}, {"type": "Feature", "id": "http://data.archaeology.link/data/ancientports/14", "label": "Woerden, Kruittorenweg & Havenstraat, on R Oude Rijn (14)", "properties": {}, "geometry": {"type": "Point", "coordinates": [4.88227, 52.08507]}}, {"type": "Feature", "id": "http://data.archaeology.link/data/ancientports/4000", "label": "Susah, Soussa (4000)", "properties": {}, "geometry": {"type": "Point", "coordinates": [21.9685, 32.9039]}}, {"type": "Feature", "id": "http://data.archaeology.link/data/ancientports/1750", "label": "Afyssos (1750)", "properties": {}, "geometry": {"type": "Point", "coordinates": [23.1629, 39.2728]}}, {"type": "Feature", "id": "http://data.archaeology.link/data/ancientports/3492_2", "label": "Qesaria, Caesarea Maritima, outer port, built by Herod from 21 to 10 BC, with Drusion lighthouse (3492_2)", "properties": {}, "geometry": {"type": "Point", "coordinates": [34.88813, 32.50343]}}, {"type": "Feature", "id": "http://data.archaeology.link/data/ancientports/4130", "label": "Borj el-Hassar, on the isles of Kerkennah (4130)", "properties": {}, "geometry": {"type": "Point", "coordinates": [11.15169, 34.71138]}}, {"type": "Feature", "id": "http://data.archaeology.link/data/ancientports/909", "label": "Palo, with Roman villa (909)", "properties": {}, "geometry": {"type": "Point", "coordinates": [12.10084, 41.93296]}}, {"type": "Feature", "id": "http://data.archaeology.link/data/ancientports/3270_2", "label": "SW side of isle of Domuz Adasi (3270_2)", "properties": {}, "geometry": {"type": "Point", "coordinates": [28.8968, 36.6606]}}, {"type": "Feature", "id": "http://data.archaeology.link/data/ancientports/623", "label": "Jetty of Port La Nautique, on the Etang de Bages (623)", "properties": {}, "geometry": {"type": "Point", "coordinates": [3.00463, 43.1418]}}, {"type": "Feature", "id": "http://data.archaeology.link/data/ancientports/23", "label": "Roman bridge at Cuijk, on R Maas (23)", "properties": {}, "geometry": {"type": "Point", "coordinates": [5.88425, 51.72915]}}, {"type": "Feature", "id": "http://data.archaeology.link/data/ancientports/3476", "label": "Acre, Akko, with ancient ashlar breakwater under modern one, with ancient lighthouse on Tower of Flies (3476)", "properties": {}, "geometry": {"type": "Point", "coordinates": [35.07, 32.9199]}}, {"type": "Feature", "id": "http://data.archaeology.link/data/ancientports/143", "label": "Chester, with rare remains of a Roman quaywall on R Dee (143)", "properties": {}, "geometry": {"type": "Point", "coordinates": [-2.8959, 53.1868]}}, {"type": "Feature", "id": "http://data.archaeology.link/data/ancientports/955", "label": "Terracina, with several Roman villas (955)", "properties": {}, "geometry": {"type": "Point", "coordinates": [13.2545, 41.286]}}, {"type": "Feature", "id": "http://data.archaeology.link/data/ancientports/3274", "label": "Taskaya, Tasyaka (3274)", "properties": {}, "geometry": {"type": "Point", "coordinates": [28.872, 36.6963]}}, {"type": "Feature", "id": "http://data.archaeology.link/data/ancientports/4113", "label": "Bou Ghrara, Roman jetty with platform (4113)", "properties": {}, "geometry": {"type": "Point", "coordinates": [10.68204, 33.53255]}}, {"type": "Feature", "id": "http://data.archaeology.link/data/ancientports/4237", "label": "Tipaza, sheltered by two islets (4237)", "properties": {}, "geometry": {"type": "Point", "coordinates": [2.45892, 36.59611]}}, {"type": "Feature", "id": "http://data.archaeology.link/data/ancientports/1351", "label": "Aquilea, on ancient course of R Isonzo, Soca, now R Terzo & R Natissa (1351)", "properties": {}, "geometry": {"type": "Point", "coordinates": [13.3695, 45.7748]}}, {"type": "Feature", "id": "http://data.archaeology.link/data/ancientports/4002", "label": "El-Hamamah, with many fish tanks and where submerged remains have been reported (4002)", "properties": {}, "geometry": {"type": "Point", "coordinates": [21.6321, 32.9259]}}, {"type": "Feature", "id": "http://data.archaeology.link/data/ancientports/1383_3", "label": "Pomer (1383_3)", "properties": {}, "geometry": {"type": "Point", "coordinates": [13.9006, 44.8236]}}, {"type": "Feature", "id": "http://data.archaeology.link/data/ancientports/4135", "label": "Salakta, Ras el-Bled (4135)", "properties": {}, "geometry": {"type": "Point", "coordinates": [11.04162, 35.38722]}}, {"type": "Feature", "id": "http://data.archaeology.link/data/ancientports/964", "label": "Roman villa Sarinola at Formia (964)", "properties": {}, "geometry": {"type": "Point", "coordinates": [13.60604, 41.25323]}}, {"type": "Feature", "id": "http://data.archaeology.link/data/ancientports/926", "label": "Ponte Testaccio, archa\u00efc Mattatoio, on right bank of R Tiber (926)", "properties": {}, "geometry": {"type": "Point", "coordinates": [12.4707, 41.87471]}}, {"type": "Feature", "id": "http://data.archaeology.link/data/ancientports/4200", "label": "Tabarka, ile de Tabarca, an island of the people of ancient Naxos in Sicily? (4200)", "properties": {}, "geometry": {"type": "Point", "coordinates": [8.75486, 36.95951]}}, {"type": "Feature", "id": "http://data.archaeology.link/data/ancientports/918", "label": "Ostia, molo repubblicano (918)", "properties": {}, "geometry": {"type": "Point", "coordinates": [12.29893, 41.7648]}}, {"type": "Feature", "id": "http://data.archaeology.link/data/ancientports/1006", "label": "Sorrento, Roman villa Agrippa Postumus at Marina Grande (1006)", "properties": {}, "geometry": {"type": "Point", "coordinates": [14.3698, 40.6279]}}, {"type": "Feature", "id": "http://data.archaeology.link/data/ancientports/369", "label": "El Majuelo, Almunecar, large Roman fish processing factory (369)", "properties": {}, "geometry": {"type": "Point", "coordinates": [-3.69405, 36.732]}}, {"type": "Feature", "id": "http://data.archaeology.link/data/ancientports/3116", "label": "near Coruk, on R Havran (3116)", "properties": {}, "geometry": {"type": "Point", "coordinates": [26.9742, 39.5284]}}, {"type": "Feature", "id": "http://data.archaeology.link/data/ancientports/15", "label": "Utrecht, Hoge Woerd, on R Oude Rijn (15)", "properties": {}, "geometry": {"type": "Point", "coordinates": [5.04177, 52.08755]}}, {"type": "Feature", "id": "http://data.archaeology.link/data/ancientports/1383_1", "label": "Otocic Frasker, Frascher islet (1383_1)", "properties": {}, "geometry": {"type": "Point", "coordinates": [13.846, 44.821]}}, {"type": "Feature", "id": "http://data.archaeology.link/data/ancientports/4137", "label": "Ras Dimass, near Bekalta south of Monastir, large breakwater of the South port, with possible lighthouse (4137)", "properties": {}, "geometry": {"type": "Point", "coordinates": [11.05131, 35.6243]}}, {"type": "Feature", "id": "http://data.archaeology.link/data/ancientports/4258", "label": "Port aux Poules at Bethioua, near Arzew, near wadi el-Hammam (4258)", "properties": {}, "geometry": {"type": "Point", "coordinates": [-0.16265, 35.79738]}}, {"type": "Feature", "id": "http://data.archaeology.link/data/ancientports/1436", "label": "Roman villa at Hramina, on Murter island (1436)", "properties": {}, "geometry": {"type": "Point", "coordinates": [15.5939, 43.83237]}}, {"type": "Feature", "id": "http://data.archaeology.link/data/ancientports/345", "label": "Bolonia, large Roman fish processing factory with slipway & quays now eroded by the sea (345)", "properties": {}, "geometry": {"type": "Point", "coordinates": [-5.7761, 36.0888]}}, {"type": "Feature", "id": "http://data.archaeology.link/data/ancientports/666", "label": "Marseille, Vieux Port, place Jules Verne & place Villeneuve-Bargemon (see also nearby Musee des docks: Dolia warehouse) (666)", "properties": {}, "geometry": {"type": "Point", "coordinates": [5.3696, 43.29685]}}, {"type": "Feature", "id": "http://data.archaeology.link/data/ancientports/3193", "label": "Milet, Lion Harbour (3193)", "properties": {}, "geometry": {"type": "Point", "coordinates": [27.2795, 37.5317]}}, {"type": "Feature", "id": "http://data.archaeology.link/data/ancientports/726", "label": "Aleria, Roman naval base, near outlet of R Tavignano (726)", "properties": {}, "geometry": {"type": "Point", "coordinates": [9.5093, 42.1025]}}, {"type": "Feature", "id": "http://data.archaeology.link/data/ancientports/3934_1", "label": "Royal port near Palace (3934_1)", "properties": {}, "geometry": {"type": "Point", "coordinates": [29.9037, 31.2106]}}, {"type": "Feature", "id": "http://data.archaeology.link/data/ancientports/13", "label": "Zwammerdam, on R Oude Rijn (13)", "properties": {}, "geometry": {"type": "Point", "coordinates": [4.71583, 52.105]}}, {"type": "Feature", "id": "http://data.archaeology.link/data/ancientports/2934", "label": "Marathi, on the North side of the entrance to the bay of Souda, in front of Palaiosouda islet (2934)", "properties": {}, "geometry": {"type": "Point", "coordinates": [24.17553, 35.50418]}}, {"type": "Feature", "id": "http://data.archaeology.link/data/ancientports/1340", "label": "in Scanello canal, near isola Burano (1340)", "properties": {}, "geometry": {"type": "Point", "coordinates": [12.43014, 45.4882]}}, {"type": "Feature", "id": "http://data.archaeology.link/data/ancientports/3922", "label": "Giza, Gizeh, Port Said Street (3922)", "properties": {}, "geometry": {"type": "Point", "coordinates": [31.145, 29.982]}}, {"type": "Feature", "id": "http://data.archaeology.link/data/ancientports/777", "label": "Golfo di Palmas (777)", "properties": {}, "geometry": {"type": "Point", "coordinates": [8.46138, 39.04831]}}, {"type": "Feature", "id": "http://data.archaeology.link/data/ancientports/1700", "label": "Liani Ammos, north of Chalkis, on Euripe strait, with submerged BA settlement (1700)", "properties": {}, "geometry": {"type": "Point", "coordinates": [23.5917, 38.4562]}}, {"type": "Feature", "id": "http://data.archaeology.link/data/ancientports/1704", "label": "Eretria, with Roman fort (1704)", "properties": {}, "geometry": {"type": "Point", "coordinates": [23.79526, 38.38535]}}, {"type": "Feature", "id": "http://data.archaeology.link/data/ancientports/3707", "label": "Geziret Fara'un, Jazirat Firawn, Pharaoh's island, Coral island (3707)", "properties": {}, "geometry": {"type": "Point", "coordinates": [34.85884, 29.4624]}}, {"type": "Feature", "id": "http://data.archaeology.link/data/ancientports/4010", "label": "Taukra, Tocra (4010)", "properties": {}, "geometry": {"type": "Point", "coordinates": [20.5761, 32.5447]}}, {"type": "Feature", "id": "http://data.archaeology.link/data/ancientports/172", "label": "Irun, Estuary of R Bidasoa, export of silver & lead (172)", "properties": {}, "geometry": {"type": "Point", "coordinates": [-1.7864, 43.3417]}}, {"type": "Feature", "id": "http://data.archaeology.link/data/ancientports/28", "label": "Park Arentsburgh, at Voorburg, on R Vliet (28)", "properties": {}, "geometry": {"type": "Point", "coordinates": [4.34862, 52.059]}}, {"type": "Feature", "id": "http://data.archaeology.link/data/ancientports/4139", "label": "Lamta, jetty with platform perpandicular to the coast (4139)", "properties": {}, "geometry": {"type": "Point", "coordinates": [10.87235, 35.68659]}}, {"type": "Feature", "id": "http://data.archaeology.link/data/ancientports/1626", "label": "Bay of Ambelaki, on the isle of Salamis (1626)", "properties": {}, "geometry": {"type": "Point", "coordinates": [23.5387, 37.95016]}}, {"type": "Feature", "id": "http://data.archaeology.link/data/ancientports/2210", "label": "SW of the isle of Lesbos, Lesvos (2210)", "properties": {}, "geometry": {"type": "Point", "coordinates": [25.93389, 39.13028]}}, {"type": "Feature", "id": "http://data.archaeology.link/data/ancientports/2317", "label": "Archa\u00efc harbour, West harbour (2317)", "properties": {}, "geometry": {"type": "Point", "coordinates": [28.2198, 36.4523]}}, {"type": "Feature", "id": "http://data.archaeology.link/data/ancientports/4007", "label": "Tolmeita, Tulmaythah, port of al-Marj (4007)", "properties": {}, "geometry": {"type": "Point", "coordinates": [20.9491, 32.7156]}}, {"type": "Feature", "id": "http://data.archaeology.link/data/ancientports/925", "label": "Pietra Papa, on right bank of R Tiber (925)", "properties": {}, "geometry": {"type": "Point", "coordinates": [12.47538, 41.86639]}}, {"type": "Feature", "id": "http://data.archaeology.link/data/ancientports/1672", "label": "Larimna  (1672)", "properties": {}, "geometry": {"type": "Point", "coordinates": [23.2889, 38.5639]}}, {"type": "Feature", "id": "http://data.archaeology.link/data/ancientports/4076", "label": "Leptis Magna, Lepcis Magna, with ancient lighthouse, on wadi Lebda (4076)", "properties": {}, "geometry": {"type": "Point", "coordinates": [14.3008, 32.6376]}}, {"type": "Feature", "id": "http://data.archaeology.link/data/ancientports/4081", "label": "Ras al-Hallab (4081)", "properties": {}, "geometry": {"type": "Point", "coordinates": [13.81, 32.798]}}, {"type": "Feature", "id": "http://data.archaeology.link/data/ancientports/1380_2", "label": "Fazana (1380_2)", "properties": {}, "geometry": {"type": "Point", "coordinates": [13.799, 44.927]}}, {"type": "Feature", "id": "http://data.archaeology.link/data/ancientports/3934_5", "label": "Commercial port (3934_5)", "properties": {}, "geometry": {"type": "Point", "coordinates": [29.8964, 31.2024]}}, {"type": "Feature", "id": "http://data.archaeology.link/data/ancientports/3945_2", "label": "Roman villa at Borg el-Arab (3945_2)", "properties": {}, "geometry": {"type": "Point", "coordinates": [29.5236, 30.9221]}}, {"type": "Feature", "id": "http://data.archaeology.link/data/ancientports/3466", "label": "Sour, North port (3466)", "properties": {}, "geometry": {"type": "Point", "coordinates": [35.19518, 33.27581]}}, {"type": "Feature", "id": "http://data.archaeology.link/data/ancientports/998", "label": "Naples, Piazza Municipio, onshore Roman quay (998)", "properties": {}, "geometry": {"type": "Point", "coordinates": [14.2524, 40.83926]}}, {"type": "Feature", "id": "http://data.archaeology.link/data/ancientports/1380_1", "label": "Porto San Nicolo, on the isles of Brioni, Brijuni (1380_1)", "properties": {}, "geometry": {"type": "Point", "coordinates": [13.74, 44.9344]}}, {"type": "Feature", "id": "http://data.archaeology.link/data/ancientports/476_1", "label": "Na Guardis islet, in front of Colonia Sant Jordi (476_1)", "properties": {}, "geometry": {"type": "Point", "coordinates": [3.00131, 39.31111]}}, {"type": "Feature", "id": "http://data.archaeology.link/data/ancientports/326", "label": "Cortijo el Rosario, Mesas de Asta, with a causeway and quay at El Muelle (326)", "properties": {}, "geometry": {"type": "Point", "coordinates": [-6.1547, 36.7893]}}, {"type": "Feature", "id": "http://data.archaeology.link/data/ancientports/3487", "label": "Dor, Dora, Love Bay (3487)", "properties": {}, "geometry": {"type": "Point", "coordinates": [34.91652, 32.6182]}}, {"type": "Feature", "id": "http://data.archaeology.link/data/ancientports/1968", "label": "Perachora, near Limni Vouliagmenis (1968)", "properties": {}, "geometry": {"type": "Point", "coordinates": [22.85268, 38.02787]}}, {"type": "Feature", "id": "http://data.archaeology.link/data/ancientports/776", "label": "South end of the lagoon of Baiocca (776)", "properties": {}, "geometry": {"type": "Point", "coordinates": [8.59348, 39.01182]}}, {"type": "Feature", "id": "http://data.archaeology.link/data/ancientports/923", "label": "Santa Passera, on right bank of R Tiber (923)", "properties": {}, "geometry": {"type": "Point", "coordinates": [12.46084, 41.85644]}}, {"type": "Feature", "id": "http://data.archaeology.link/data/ancientports/4202", "label": "Annaba, on the left bank of wadi Boudjimah, nearly 1 km from the outlet, according to Elie de la Primaudaie, 1861 (4202)", "properties": {}, "geometry": {"type": "Point", "coordinates": [7.7517, 36.882]}}, {"type": "Feature", "id": "http://data.archaeology.link/data/ancientports/3440", "label": "Al-Mina, Tripoli, South bay (3440)", "properties": {}, "geometry": {"type": "Point", "coordinates": [35.8142, 34.447]}}, {"type": "Feature", "id": "http://data.archaeology.link/data/ancientports/1373", "label": "Porec, with submerged breakwater 'Porporella' on the north (1373)", "properties": {}, "geometry": {"type": "Point", "coordinates": [13.5924, 45.2272]}}, {"type": "Feature", "id": "http://data.archaeology.link/data/ancientports/4103", "label": "el-Kantara, on the isle of Djerba (4103)", "properties": {}, "geometry": {"type": "Point", "coordinates": [10.92065, 33.68295]}}, {"type": "Feature", "id": "http://data.archaeology.link/data/ancientports/782", "label": "Santa Maria di Nabui, on R Pabillonis (782)", "properties": {}, "geometry": {"type": "Point", "coordinates": [8.5555, 39.68794]}}, {"type": "Feature", "id": "http://data.archaeology.link/data/ancientports/32", "label": "\u201cOude Wereld\u201d probably submerged offshore of Goedereede, on the isle of Goeree, remains were seen last in 1618 at a place called 'Windglap' located in the Zandgors dunes (32)", "properties": {}, "geometry": {"type": "Point", "coordinates": [3.93384, 51.84284]}}, {"type": "Feature", "id": "http://data.archaeology.link/data/ancientports/618", "label": "Sainte Jeanne, near Port La Nouvelle (618)", "properties": {}, "geometry": {"type": "Point", "coordinates": [3.03569, 43.0037]}}, {"type": "Feature", "id": "http://data.archaeology.link/data/ancientports/778", "label": "San Antioco (778)", "properties": {}, "geometry": {"type": "Point", "coordinates": [8.462, 39.06534]}}, {"type": "Feature", "id": "http://data.archaeology.link/data/ancientports/4163", "label": "Causeway/jetty to Djilia islet, about 2 km SW of modern port of Sidi Daoud-Thonara (4163)", "properties": {}, "geometry": {"type": "Point", "coordinates": [10.89742, 37.00543]}}, {"type": "Feature", "id": "http://data.archaeology.link/data/ancientports/3270_1", "label": "North side of isle of Domuz Adasi (3270_1)", "properties": {}, "geometry": {"type": "Point", "coordinates": [28.9024, 36.667]}}, {"type": "Feature", "id": "http://data.archaeology.link/data/ancientports/4088", "label": "Marsa Sabratah, central promontory (4088)", "properties": {}, "geometry": {"type": "Point", "coordinates": [12.4815, 32.8086]}}, {"type": "Feature", "id": "http://data.archaeology.link/data/ancientports/997_1", "label": "Naples, Piazza Municipio, offshore Roman pier made with timber caissons (997_1)", "properties": {}, "geometry": {"type": "Point", "coordinates": [14.25462, 40.83927]}}, {"type": "Feature", "id": "http://data.archaeology.link/data/ancientports/143_1", "label": "Heronbridge, on R Dee (143_1)", "properties": {}, "geometry": {"type": "Point", "coordinates": [-2.8821, 53.1674]}}, {"type": "Feature", "id": "http://data.archaeology.link/data/ancientports/4006", "label": "Maatin el-Agla, Maaten al-Uqla (4006)", "properties": {}, "geometry": {"type": "Point", "coordinates": [21.34061, 32.77592]}}, {"type": "Feature", "id": "http://data.archaeology.link/data/ancientports/1370", "label": "Valeta, in Camp Lanterna, near Vabriga (1370)", "properties": {}, "geometry": {"type": "Point", "coordinates": [13.586, 45.2983]}}, {"type": "Feature", "id": "http://data.archaeology.link/data/ancientports/3934_3", "label": "Commercial port (3934_3)", "properties": {}, "geometry": {"type": "Point", "coordinates": [29.9017, 31.2054]}}, {"type": "Feature", "id": "http://data.archaeology.link/data/ancientports/3314", "label": "Fasilis Harabeleri, near Tekirova (3314)", "properties": {}, "geometry": {"type": "Point", "coordinates": [30.5531, 36.5251]}}, {"type": "Feature", "id": "http://data.archaeology.link/data/ancientports/2760", "label": "Baruthane, near Samsun (2760)", "properties": {}, "geometry": {"type": "Point", "coordinates": [36.33963, 41.3149]}}, {"type": "Feature", "id": "http://data.archaeology.link/data/ancientports/1376", "label": "Rovinj, Rovigno (1376)", "properties": {}, "geometry": {"type": "Point", "coordinates": [13.63475, 45.07832]}}, {"type": "Feature", "id": "http://data.archaeology.link/data/ancientports/922", "label": "Santa Passera, on left bank of R Tiber, south of Rome (922)", "properties": {}, "geometry": {"type": "Point", "coordinates": [12.47144, 41.84739]}}, {"type": "Feature", "id": "http://data.archaeology.link/data/ancientports/767", "label": "Capo di Pula, Creek of San Efisio (767)", "properties": {}, "geometry": {"type": "Point", "coordinates": [9.01444, 38.98705]}}, {"type": "Feature", "id": "http://data.archaeology.link/data/ancientports/10", "label": "Valkenburg, Marktveld, with recently discovered large Roman fort, 500 m south, on R Oude Rijn (10)", "properties": {}, "geometry": {"type": "Point", "coordinates": [4.4331, 52.18033]}}, {"type": "Feature", "id": "http://data.archaeology.link/data/ancientports/2064", "label": "Port in Stadion District, Ghourna, on the isle of Dhilos, Delos (2064)", "properties": {}, "geometry": {"type": "Point", "coordinates": [25.2752, 37.4056]}}, {"type": "Feature", "id": "http://data.archaeology.link/data/ancientports/3136", "label": "north of Aliaga, on R G\u00fczelhisar (3136)", "properties": {}, "geometry": {"type": "Point", "coordinates": [26.9805, 38.8444]}}, {"type": "Feature", "id": "http://data.archaeology.link/data/ancientports/2398_1", "label": "Little harbour, Firuzk\u00f6y, on Lake K\u00fcc\u00fckcekmece (2398_1)", "properties": {}, "geometry": {"type": "Point", "coordinates": [28.7352, 41.0341]}}, {"type": "Feature", "id": "http://data.archaeology.link/data/ancientports/3111_1", "label": "Kadirga K\u00f6y\u00fc (3111_1)", "properties": {}, "geometry": {"type": "Point", "coordinates": [26.3697, 39.4838]}}, {"type": "Feature", "id": "http://data.archaeology.link/data/ancientports/4112_1", "label": "Ras Segala, South jetty with platform, in the gulf of Boughrara, near Henchir Zian (4112_1)", "properties": {}, "geometry": {"type": "Point", "coordinates": [10.92436, 33.53416]}}, {"type": "Feature", "id": "http://data.archaeology.link/data/ancientports/753", "label": "Olbia, Porto Romano (753)", "properties": {}, "geometry": {"type": "Point", "coordinates": [9.5031, 40.9275]}}, {"type": "Feature", "id": "http://data.archaeology.link/data/ancientports/3934", "label": "Alexandria, also called \u00ab Le Phare \u00bb, The Pharos, includes several now submerged ports, it also includes a drydock (acc. to Athenaeus) (3934)", "properties": {}, "geometry": {"type": "Point", "coordinates": [29.894, 31.207]}}, {"type": "Feature", "id": "http://data.archaeology.link/data/ancientports/3353", "label": "Gilindere-Aydincik (3353)", "properties": {}, "geometry": {"type": "Point", "coordinates": [33.3231, 36.1443]}}, {"type": "Feature", "id": "http://data.archaeology.link/data/ancientports/3406", "label": "Cevlik, port of Antioch of Daphne, inner harbour at the toe of the hill, on R Degirmendere (3406)", "properties": {}, "geometry": {"type": "Point", "coordinates": [35.9292, 36.1164]}}, {"type": "Feature", "id": "http://data.archaeology.link/data/ancientports/3093", "label": "Moulos, K\u00fcc\u00fckerenk\u00f6y (3093)", "properties": {}, "geometry": {"type": "Point", "coordinates": [33.6592, 35.3622]}}, {"type": "Feature", "id": "http://data.archaeology.link/data/ancientports/3549", "label": "Quseir al-Qadim, at the M\u00f6venpick hotel, 8 km north of Quseir. Ptolemy locates Myos-Hormos at 3\u00b025\u2019 of latitude (380 km) north of Berenike, which leads to Hurghada. The Periplus Maris Erythraei indicates that this site is at 1800 stadia (330 km) from Berenike, which would lead near Safaga. However, modern authors agree to locate this port 8 km north of Quseir on the West side of the road, and a jetty made of amphorae was found by Peacock & Blue. Napoleon's team identified it as 'Vieux Qos\u00e9\u00efr'. Roman fort at Qasr Hadie and road to Nile valley (3549)", "properties": {}, "geometry": {"type": "Point", "coordinates": [34.2404, 26.15635]}}, {"type": "Feature", "id": "http://data.archaeology.link/data/ancientports/1525", "label": "Orikum, on a former island inside the bay of Vlore, on R Dukatit (1525)", "properties": {}, "geometry": {"type": "Point", "coordinates": [19.42858, 40.31864]}}, {"type": "Feature", "id": "http://data.archaeology.link/data/ancientports/1360", "label": "Vilizan (1360)", "properties": {}, "geometry": {"type": "Point", "coordinates": [13.67575, 45.54313]}}, {"type": "Feature", "id": "http://data.archaeology.link/data/ancientports/2061", "label": "In front of Apollo temple, on the isle of Dhilos, Delos, with at least 3 ancient lighthouses: on the islet of Kherroniso (South end), at Cape Ghourna (North end), at Cape Skyros or Sykia (East side) (2061)", "properties": {}, "geometry": {"type": "Point", "coordinates": [25.2655, 37.3998]}}, {"type": "Feature", "id": "http://data.archaeology.link/data/ancientports/4175_1", "label": "Punic breakwater on Quadrilatere de Falbe, Carthage (4175_1)", "properties": {}, "geometry": {"type": "Point", "coordinates": [10.3279, 36.8399]}}, {"type": "Feature", "id": "http://data.archaeology.link/data/ancientports/1007", "label": "Roman villa at Capo di Sorrento, Bagni della Regina Giovanna (1007)", "properties": {}, "geometry": {"type": "Point", "coordinates": [14.3519, 40.6338]}}, {"type": "Feature", "id": "http://data.archaeology.link/data/ancientports/3417", "label": "Lattaquie, Lattakieh, Latakia, al-Ladhiqiyah, at Ras Ziaret (3417)", "properties": {}, "geometry": {"type": "Point", "coordinates": [35.76989, 35.51317]}}, {"type": "Feature", "id": "http://data.archaeology.link/data/ancientports/1169", "label": "Selinonte east, on R Cottone (1169)", "properties": {}, "geometry": {"type": "Point", "coordinates": [12.825, 37.583]}}, {"type": "Feature", "id": "http://data.archaeology.link/data/ancientports/11", "label": "Leiden, Roomburg, on R Oude Rijn (11)", "properties": {}, "geometry": {"type": "Point", "coordinates": [4.51841, 52.14971]}}, {"type": "Feature", "id": "http://data.archaeology.link/data/ancientports/1965", "label": "Lechion, inner harbour with from west to east: west basin, central basin, east basin, harbour entrance canal (1965)", "properties": {}, "geometry": {"type": "Point", "coordinates": [22.88619, 37.93213]}}, {"type": "Feature", "id": "http://data.archaeology.link/data/ancientports/599", "label": "Bordeaux, Porte Navigere, at the outlet of R Deveze, rue de la Devise (599)", "properties": {}, "geometry": {"type": "Point", "coordinates": [-0.57201, 44.84006]}}, {"type": "Feature", "id": "http://data.archaeology.link/data/ancientports/638", "label": "Lattes, on R Lez, with ancient lighthouse (638)", "properties": {}, "geometry": {"type": "Point", "coordinates": [3.907, 43.56462]}}, {"type": "Feature", "id": "http://data.archaeology.link/data/ancientports/1386", "label": "Buduva, Budava, Porto Bado, near Nezakcij (1386)", "properties": {}, "geometry": {"type": "Point", "coordinates": [13.983, 44.9]}}, {"type": "Feature", "id": "http://data.archaeology.link/data/ancientports/1978", "label": "Circular harbour basin between Desylla and Kokotou-Arion districts on Corfu, on Ormos Garitsa (1978)", "properties": {}, "geometry": {"type": "Point", "coordinates": [19.92325, 39.6089]}}, {"type": "Feature", "id": "http://data.archaeology.link/data/ancientports/2157", "label": "Thassos, Limenas, Limenaria, on the North coast of the isle of Thasos, with its ancient lighthouse and another lighthouse at Cape Phanari (2157)", "properties": {}, "geometry": {"type": "Point", "coordinates": [24.7122, 40.7813]}}, {"type": "Feature", "id": "http://data.archaeology.link/data/ancientports/733_2", "label": "San Bainzu, quarry with quay on Cavallo island (733_2)", "properties": {}, "geometry": {"type": "Point", "coordinates": [9.2612, 41.3617]}}, {"type": "Feature", "id": "http://data.archaeology.link/data/ancientports/2349", "label": "Pigadia, on the isle of Carpathos, Karpathos, Kerpe (2349)", "properties": {}, "geometry": {"type": "Point", "coordinates": [27.217, 35.509]}}, {"type": "Feature", "id": "http://data.archaeology.link/data/ancientports/8", "label": "Velsen, west ofAmsterdam, on R Oer-IJ (8)", "properties": {}, "geometry": {"type": "Point", "coordinates": [4.66668, 52.45887]}}, {"type": "Feature", "id": "http://data.archaeology.link/data/ancientports/3412", "label": "Ras el-Bassit, Basit (3412)", "properties": {}, "geometry": {"type": "Point", "coordinates": [35.82626, 35.85282]}}, {"type": "Feature", "id": "http://data.archaeology.link/data/ancientports/4176_1", "label": "Quay near Neptune block, near Quartier Magon, SE of Saint Louis de Carthage cathedral. This might be the very first landing place of the Phoenicians (?) (4176_1)", "properties": {}, "geometry": {"type": "Point", "coordinates": [10.33139, 36.84987]}}, {"type": "Feature", "id": "http://data.archaeology.link/data/ancientports/12", "label": "Alphen a/d Rijn, on R Oude Rijn (12)", "properties": {}, "geometry": {"type": "Point", "coordinates": [4.66139, 52.12917]}}, {"type": "Feature", "id": "http://data.archaeology.link/data/ancientports/2065_1", "label": "Lazaret, on the isle of Rinia, Rhenee, near Delos (2065_1)", "properties": {}, "geometry": {"type": "Point", "coordinates": [25.2384, 37.40963]}}, {"type": "Feature", "id": "http://data.archaeology.link/data/ancientports/1732", "label": "Loutro (1732)", "properties": {}, "geometry": {"type": "Point", "coordinates": [22.9695, 39.0305]}}, {"type": "Feature", "id": "http://data.archaeology.link/data/ancientports/1881", "label": "Portocheli (1881)", "properties": {}, "geometry": {"type": "Point", "coordinates": [23.15186, 37.316]}}, {"type": "Feature", "id": "http://data.archaeology.link/data/ancientports/3934_2", "label": "Naval base (3934_2)", "properties": {}, "geometry": {"type": "Point", "coordinates": [29.904, 31.2085]}}, {"type": "Feature", "id": "http://data.archaeology.link/data/ancientports/3135", "label": "north of Aliaga (3135)", "properties": {}, "geometry": {"type": "Point", "coordinates": [26.98366, 38.8484]}}, {"type": "Feature", "id": "http://data.archaeology.link/data/ancientports/3945_1", "label": "Abusir, near Burg el-Arab, Roman canal-port located between east jetty near Plinthine and ancient west bridge over canal (3945_1)", "properties": {}, "geometry": {"type": "Point", "coordinates": [29.52265, 30.9391]}}, {"type": "Feature", "id": "http://data.archaeology.link/data/ancientports/3058", "label": "Amathus, 10 km east of Limassol (3058)", "properties": {}, "geometry": {"type": "Point", "coordinates": [33.14389, 34.70958]}}, {"type": "Feature", "id": "http://data.archaeology.link/data/ancientports/4176", "label": "Cothon of Carthage: circular naval base (4176)", "properties": {}, "geometry": {"type": "Point", "coordinates": [10.3255, 36.845]}}, {"type": "Feature", "id": "http://data.archaeology.link/data/ancientports/931", "label": "Tor di Nora and Ripetta, on left bank of R Tiber (931)", "properties": {}, "geometry": {"type": "Point", "coordinates": [12.46969, 41.90152]}}, {"type": "Feature", "id": "http://data.archaeology.link/data/ancientports/3232", "label": "Kapicikada Tepesi  (3232)", "properties": {}, "geometry": {"type": "Point", "coordinates": [28.0525, 36.8259]}}, {"type": "Feature", "id": "http://data.archaeology.link/data/ancientports/98_1", "label": "Oppidum at Cleavel Point, on Ower peninsula, in front of Green island (98_1)", "properties": {}, "geometry": {"type": "Point", "coordinates": [-1.999, 50.6738]}}, {"type": "Feature", "id": "http://data.archaeology.link/data/ancientports/1010", "label": "Palazzo a Mare, near Marina Grande on the isle of Capri (1010)", "properties": {}, "geometry": {"type": "Point", "coordinates": [14.2288, 40.5596]}}, {"type": "Feature", "id": "http://data.archaeology.link/data/ancientports/801", "label": "Spiagge delle Colone on Capo Testa (801)", "properties": {}, "geometry": {"type": "Point", "coordinates": [9.1609, 41.2404]}}, {"type": "Feature", "id": "http://data.archaeology.link/data/ancientports/3373", "label": "Ayas near Yemiskumu, former island now connected to mainland (3373)", "properties": {}, "geometry": {"type": "Point", "coordinates": [34.1747, 36.4819]}}, {"type": "Feature", "id": "http://data.archaeology.link/data/ancientports/2215", "label": "Quarry near Tsamur, Kalo Limani, on the isle of Lesbos, Lesvos (2215)", "properties": {}, "geometry": {"type": "Point", "coordinates": [26.04642, 39.29254]}}, {"type": "Feature", "id": "http://data.archaeology.link/data/ancientports/1354_1", "label": "Trieste, via Cavana & Curia & via Cavazzeni (1354_1)", "properties": {}, "geometry": {"type": "Point", "coordinates": [13.76665, 45.648]}}, {"type": "Feature", "id": "http://data.archaeology.link/data/ancientports/46", "label": "Cramond, on Firth of Forth (46)", "properties": {}, "geometry": {"type": "Point", "coordinates": [-3.2974, 55.977]}}, {"type": "Feature", "id": "http://data.archaeology.link/data/ancientports/3191", "label": "Kapikiri on Lake Bafa (3191)", "properties": {}, "geometry": {"type": "Point", "coordinates": [27.5265, 37.4974]}}, {"type": "Feature", "id": "http://data.archaeology.link/data/ancientports/3234", "label": "Cnide West, former isle of Triopion now connected to mainland, Cape Kriou (3234)", "properties": {}, "geometry": {"type": "Point", "coordinates": [27.37182, 36.68629]}}, {"type": "Feature", "id": "http://data.archaeology.link/data/ancientports/1866", "label": "south of Kolonna hill, on Isle of Egina (1866)", "properties": {}, "geometry": {"type": "Point", "coordinates": [23.42464, 37.74765]}}, {"type": "Feature", "id": "http://data.archaeology.link/data/ancientports/4022", "label": "Ras Teyonas, Taiunes, Tawinis, 20 km SW of Benghazi (4022)", "properties": {}, "geometry": {"type": "Point", "coordinates": [19.9458, 31.9459]}}, {"type": "Feature", "id": "http://data.archaeology.link/data/ancientports/682", "label": "Toulon, ancient coastline on mont\u00e9e des horeia/place Besagne, rue Magnaque (682)", "properties": {}, "geometry": {"type": "Point", "coordinates": [5.9355, 43.12]}}, {"type": "Feature", "id": "http://data.archaeology.link/data/ancientports/3144", "label": "Liman Tepe, near Urla Iskele (3144)", "properties": {}, "geometry": {"type": "Point", "coordinates": [26.77518, 38.36431]}}, {"type": "Feature", "id": "http://data.archaeology.link/data/ancientports/2158", "label": "Thassos, Limenas, Limenaria, on the North coast of the isle of Thasos, with its ancient lighthouse and another lighthouse at Cape Phanari (2158)", "properties": {}, "geometry": {"type": "Point", "coordinates": [24.71433, 40.78476]}}, {"type": "Feature", "id": "http://data.archaeology.link/data/ancientports/1431", "label": "Barbir, near Sukosan (1431)", "properties": {}, "geometry": {"type": "Point", "coordinates": [15.30797, 44.04431]}}, {"type": "Feature", "id": "http://data.archaeology.link/data/ancientports/3453_2", "label": "Beyrouth, Beirut, quay wall in Allemby street (excavation Bey 039) (3453_2)", "properties": {}, "geometry": {"type": "Point", "coordinates": [35.505, 33.8994]}}, {"type": "Feature", "id": "http://data.archaeology.link/data/ancientports/2088", "label": "Naoussa, on the isle of Paros, Bara (2088)", "properties": {}, "geometry": {"type": "Point", "coordinates": [25.24672, 37.12569]}}, {"type": "Feature", "id": "http://data.archaeology.link/data/ancientports/339", "label": "Cadiz, Cadix, with ancient lighthouse. Puerto interior on ancient canal of Bahia-Caleta. Initially, Gadir was an island as indicated by Strabo who speaks about \u00ab the Isle of the gaditans \u00bb (Geogr, 3, 2). Port remains were also found at c/ Sagasta 96-98. (339)", "properties": {}, "geometry": {"type": "Point", "coordinates": [-6.295, 36.53]}}, {"type": "Feature", "id": "http://data.archaeology.link/data/ancientports/3458", "label": "Sa\u00efda, isle of Zire, with several quarries (3458)", "properties": {}, "geometry": {"type": "Point", "coordinates": [35.36802, 33.57276]}}, {"type": "Feature", "id": "http://data.archaeology.link/data/ancientports/891", "label": "Ansedonia, with Roman villas at Tagliata & Torre San Biagio (891)", "properties": {}, "geometry": {"type": "Point", "coordinates": [11.29383, 42.40709]}}, {"type": "Feature", "id": "http://data.archaeology.link/data/ancientports/2202", "label": "Mesa, Mesitziki, north of Pyrrha, on the isle of Lesbos, Lesvos (2202)", "properties": {}, "geometry": {"type": "Point", "coordinates": [26.3055, 39.1965]}}, {"type": "Feature", "id": "http://data.archaeology.link/data/ancientports/3335", "label": "SE of Elikezik (3335)", "properties": {}, "geometry": {"type": "Point", "coordinates": [31.9205, 36.5603]}}, {"type": "Feature", "id": "http://data.archaeology.link/data/ancientports/1737", "label": "Nea Anchialos, Aghialos marina (1737)", "properties": {}, "geometry": {"type": "Point", "coordinates": [22.822, 39.2769]}}, {"type": "Feature", "id": "http://data.archaeology.link/data/ancientports/383", "label": "Cartagena, Cerro del Molinete, possible canal in Calle Santa Florentina, possible quay at Casa Llagostera in Calle Mayor 23-25. Export of iron, silver & lead from the sierra minera de Cartagena-La Union (383)", "properties": {}, "geometry": {"type": "Point", "coordinates": [-0.9868, 37.60072]}}, {"type": "Feature", "id": "http://data.archaeology.link/data/ancientports/3168", "label": "Ahmetbeyli, near R Avci Cayi (3168)", "properties": {}, "geometry": {"type": "Point", "coordinates": [27.194, 37.992]}}, {"type": "Feature", "id": "http://data.archaeology.link/data/ancientports/1864", "label": "Palaia Epidauros (1864)", "properties": {}, "geometry": {"type": "Point", "coordinates": [23.16028, 37.63731]}}, {"type": "Feature", "id": "http://data.archaeology.link/data/ancientports/1639", "label": "Palaia Phokaia, near Anavissos (1639)", "properties": {}, "geometry": {"type": "Point", "coordinates": [23.9447, 37.7183]}}, {"type": "Feature", "id": "http://data.archaeology.link/data/ancientports/1364", "label": "Savudrija, Salvore Point in Istria (1364)", "properties": {}, "geometry": {"type": "Point", "coordinates": [13.502, 45.5]}}, {"type": "Feature", "id": "http://data.archaeology.link/data/ancientports/4091", "label": "Sabratah, quay (4091)", "properties": {}, "geometry": {"type": "Point", "coordinates": [12.47675, 32.80877]}}, {"type": "Feature", "id": "http://data.archaeology.link/data/ancientports/963", "label": "Roman villa La Caraciolo at Porto di Caposele (963)", "properties": {}, "geometry": {"type": "Point", "coordinates": [13.5981, 41.25082]}}, {"type": "Feature", "id": "http://data.archaeology.link/data/ancientports/958", "label": "Roman villa Giulia at Punta Eolo, on the isle of Ventotene (958)", "properties": {}, "geometry": {"type": "Point", "coordinates": [13.4339, 40.79782]}}, {"type": "Feature", "id": "http://data.archaeology.link/data/ancientports/3206", "label": "Varvil, near Bogazici (3206)", "properties": {}, "geometry": {"type": "Point", "coordinates": [27.58968, 37.19377]}}, {"type": "Feature", "id": "http://data.archaeology.link/data/ancientports/4142", "label": "Monastir, with probable quarry on La Tonnara islet (el-Ghedamsi islet) (4142)", "properties": {}, "geometry": {"type": "Point", "coordinates": [10.8323, 35.7823]}}, {"type": "Feature", "id": "http://data.archaeology.link/data/ancientports/288", "label": "Cerro da Vila, Vilamoura, on Ribeira de Quarteira (288)", "properties": {}, "geometry": {"type": "Point", "coordinates": [-8.12127, 37.0799]}}, {"type": "Feature", "id": "http://data.archaeology.link/data/ancientports/4079", "label": "Roman villa at Homs (4079)", "properties": {}, "geometry": {"type": "Point", "coordinates": [14.2727, 32.6567]}}, {"type": "Feature", "id": "http://data.archaeology.link/data/ancientports/2062", "label": "Port area on ca. 800 m south of the modern breakwater, on the isle of Dhilos, Delos, east of Megalo Remmatia, Rematiari islet (2062)", "properties": {}, "geometry": {"type": "Point", "coordinates": [25.2643, 37.3968]}}, {"type": "Feature", "id": "http://data.archaeology.link/data/ancientports/1950", "label": "Kyllini, Kyllene (1950)", "properties": {}, "geometry": {"type": "Point", "coordinates": [21.14, 37.9438]}}, {"type": "Feature", "id": "http://data.archaeology.link/data/ancientports/3236", "label": "Datca, Burgaz, 2 southern harbour basins (L2 & L3) (3236)", "properties": {}, "geometry": {"type": "Point", "coordinates": [27.6949, 36.7312]}}, {"type": "Feature", "id": "http://data.archaeology.link/data/ancientports/646", "label": "Arles, on R Rhone (646)", "properties": {}, "geometry": {"type": "Point", "coordinates": [4.61949, 43.67768]}}, {"type": "Feature", "id": "http://data.archaeology.link/data/ancientports/4066", "label": "Bwayrat al-Hasun, al-Hossuon, about 80 km west of Syrte (4066)", "properties": {}, "geometry": {"type": "Point", "coordinates": [15.7319, 31.4053]}}, {"type": "Feature", "id": "http://data.archaeology.link/data/ancientports/365", "label": "Toscanos, at the toe of Cerro del Penon, 1.5 km upstream the R Velez, near Velez-Malaga (365)", "properties": {}, "geometry": {"type": "Point", "coordinates": [-4.1145, 36.7354]}}, {"type": "Feature", "id": "http://data.archaeology.link/data/ancientports/4223", "label": "Sidi Khaled, near Taksebt (4223)", "properties": {}, "geometry": {"type": "Point", "coordinates": [4.17679, 36.90089]}}, {"type": "Feature", "id": "http://data.archaeology.link/data/ancientports/3492_1", "label": "Qesaria, Caesarea Maritima,middle port, built by Herod from 21 to 10 BC, also used by crusaders (3492_1)", "properties": {}, "geometry": {"type": "Point", "coordinates": [34.89, 32.5028]}}, {"type": "Feature", "id": "http://data.archaeology.link/data/ancientports/1371", "label": "Lorunu, Santa Marina, north of Cervar Porat (1371)", "properties": {}, "geometry": {"type": "Point", "coordinates": [13.59976, 45.27833]}}]}