{"type": "FeatureCollection", "id": "http://data.archaeology.link/data/ancientports/Pila_collection", "name": "Pila Instances Collection", "features": [{"type": "Feature", "id": "http://data.archaeology.link/data/ancientports/4076", "name": "Leptis Magna, Lepcis Magna, with ancient lighthouse, on wadi Lebda (4076)", "dateprops": [], "properties": {}, "geometry": {"type": "Point", "coordinates": [14.3008, 32.6376]}}, {"type": "Feature", "id": "http://data.archaeology.link/data/ancientports/704", "name": "Roman naval base at Frejus, with one lighthouse at the Butte St Antoine and 3 landmarks: the Lanterne d'Auguste, the Triton Monument and the Lion de Mer islet in front of St Raphael (704)", "dateprops": [], "properties": {}, "geometry": {"type": "Point", "coordinates": [6.7405, 43.43132]}}, {"type": "Feature", "id": "http://data.archaeology.link/data/ancientports/4146", "name": "Hergla (4146)", "dateprops": [], "properties": {}, "geometry": {"type": "Point", "coordinates": [10.51771, 36.02135]}}, {"type": "Feature", "id": "http://data.archaeology.link/data/ancientports/3328", "name": "Selimiye, with possible ancient lighthouse, famous for its sedimentation (3328)", "dateprops": [], "properties": {}, "geometry": {"type": "Point", "coordinates": [31.38261, 36.76754]}}, {"type": "Feature", "id": "http://data.archaeology.link/data/ancientports/3492_1", "name": "Qesaria, Caesarea Maritima,middle port, built by Herod from 21 to 10 BC, also used by crusaders (3492_1)", "dateprops": [], "properties": {}, "geometry": {"type": "Point", "coordinates": [34.89, 32.5028]}}, {"type": "Feature", "id": "http://data.archaeology.link/data/ancientports/1010", "name": "Palazzo a Mare, near Marina Grande on the isle of Capri (1010)", "dateprops": [], "properties": {}, "geometry": {"type": "Point", "coordinates": [14.2288, 40.5596]}}, {"type": "Feature", "id": "http://data.archaeology.link/data/ancientports/1023", "name": "San Marco di Castellabate (1023)", "dateprops": [], "properties": {}, "geometry": {"type": "Point", "coordinates": [14.9329, 40.268]}}, {"type": "Feature", "id": "http://data.archaeology.link/data/ancientports/981", "name": "Punta Terone, pilae of the southern breakwater (981)", "dateprops": [], "properties": {}, "geometry": {"type": "Point", "coordinates": [14.08987, 40.7883]}}, {"type": "Feature", "id": "http://data.archaeology.link/data/ancientports/982", "name": "Punta di Pennata, pilae of the northern breakwater (982)", "dateprops": [], "properties": {}, "geometry": {"type": "Point", "coordinates": [14.08908, 40.78976]}}, {"type": "Feature", "id": "http://data.archaeology.link/data/ancientports/1009", "name": "Bagni di Tiberio, near Marina Grande on the isle of Capri, with lighthouse at Roman villa Jovis (1009)", "dateprops": [], "properties": {}, "geometry": {"type": "Point", "coordinates": [14.23659, 40.55769]}}, {"type": "Feature", "id": "http://data.archaeology.link/data/ancientports/994_1", "name": "Palazzo degli Spiriti, with pilae (994_1)", "dateprops": [], "properties": {}, "geometry": {"type": "Point", "coordinates": [14.1917, 40.7934]}}, {"type": "Feature", "id": "http://data.archaeology.link/data/ancientports/987", "name": "Lucrino, two concrete moles over 200 m long (987)", "dateprops": [], "properties": {}, "geometry": {"type": "Point", "coordinates": [14.09471, 40.82648]}}, {"type": "Feature", "id": "http://data.archaeology.link/data/ancientports/881", "name": "Roman villa at Santa Liberata, on the peninsula of Argentario (881)", "dateprops": [], "properties": {}, "geometry": {"type": "Point", "coordinates": [11.15268, 42.43656]}}, {"type": "Feature", "id": "http://data.archaeology.link/data/ancientports/3498", "name": "Tell Arsuf, anchorage south of Crusader castle (3498)", "dateprops": [], "properties": {}, "geometry": {"type": "Point", "coordinates": [34.8036, 32.1903]}}, {"type": "Feature", "id": "http://data.archaeology.link/data/ancientports/949", "name": "Torre Astura,  on R Astura (949)", "dateprops": [], "properties": {}, "geometry": {"type": "Point", "coordinates": [12.7672, 41.40735]}}, {"type": "Feature", "id": "http://data.archaeology.link/data/ancientports/995", "name": "Pollion's villa at Porto Marechiaro, with pilae (995)", "dateprops": [], "properties": {}, "geometry": {"type": "Point", "coordinates": [14.1919, 40.7947]}}, {"type": "Feature", "id": "http://data.archaeology.link/data/ancientports/3934", "name": "Alexandria, also called \u00ab Le Phare \u00bb, The Pharos, includes several now submerged ports, it also includes a drydock (acc. to Athenaeus) (3934)", "dateprops": [], "properties": {}, "geometry": {"type": "Point", "coordinates": [29.894, 31.207]}}, {"type": "Feature", "id": "http://data.archaeology.link/data/ancientports/1011", "name": "Scoglio del Monacone, near the isle of Capri (1011)", "dateprops": [], "properties": {}, "geometry": {"type": "Point", "coordinates": [14.2562, 40.5431]}}, {"type": "Feature", "id": "http://data.archaeology.link/data/ancientports/4237", "name": "Tipaza, sheltered by two islets (4237)", "dateprops": [], "properties": {}, "geometry": {"type": "Point", "coordinates": [2.45892, 36.59611]}}, {"type": "Feature", "id": "http://data.archaeology.link/data/ancientports/3492_2", "name": "Qesaria, Caesarea Maritima, outer port, built by Herod from 21 to 10 BC, with Drusion lighthouse (3492_2)", "dateprops": [], "properties": {}, "geometry": {"type": "Point", "coordinates": [34.88813, 32.50343]}}, {"type": "Feature", "id": "http://data.archaeology.link/data/ancientports/900", "name": "Darsena Romana in the port of Civitavecchia, and its Torre del Lazzaretto and its Torre del Bicchiere (900)", "dateprops": [], "properties": {}, "geometry": {"type": "Point", "coordinates": [11.78781, 42.09506]}}, {"type": "Feature", "id": "http://data.archaeology.link/data/ancientports/891", "name": "Ansedonia, with Roman villas at Tagliata & Torre San Biagio (891)", "dateprops": [], "properties": {}, "geometry": {"type": "Point", "coordinates": [11.29383, 42.40709]}}, {"type": "Feature", "id": "http://data.archaeology.link/data/ancientports/1028", "name": "Roman villa at Cammerelle, near Sapri (1028)", "dateprops": [], "properties": {}, "geometry": {"type": "Point", "coordinates": [15.6222, 40.07218]}}, {"type": "Feature", "id": "http://data.archaeology.link/data/ancientports/953", "name": "Inside Lago di Paola, several Roman villas incl. Piscina di Lucullo, with access via canal and breakwaters (953)", "dateprops": [], "properties": {}, "geometry": {"type": "Point", "coordinates": [13.04425, 41.25307]}}, {"type": "Feature", "id": "http://data.archaeology.link/data/ancientports/997_1", "name": "Naples, Piazza Municipio, offshore Roman pier made with timber caissons (997_1)", "dateprops": [], "properties": {}, "geometry": {"type": "Point", "coordinates": [14.25462, 40.83927]}}, {"type": "Feature", "id": "http://data.archaeology.link/data/ancientports/1017", "name": "Punta Fuenti, near Vietri sul Mare (1017)", "dateprops": [], "properties": {}, "geometry": {"type": "Point", "coordinates": [14.71307, 40.65773]}}, {"type": "Feature", "id": "http://data.archaeology.link/data/ancientports/1252", "name": "Egnazia, with several pilae (1252)", "dateprops": [], "properties": {}, "geometry": {"type": "Point", "coordinates": [17.391, 40.8896]}}, {"type": "Feature", "id": "http://data.archaeology.link/data/ancientports/991", "name": "Pozzuoli, Pouzzoles, Puteoles, in the Campi Flegrei volcano district, pilae of arched mole are under modern breakwater (Molo Caligoliano) (991)", "dateprops": [], "properties": {}, "geometry": {"type": "Point", "coordinates": [14.1154, 40.8216]}}, {"type": "Feature", "id": "http://data.archaeology.link/data/ancientports/991_1", "name": "Rocca di Rione Terra, large number of submerged pilae (991_1)", "dateprops": [], "properties": {}, "geometry": {"type": "Point", "coordinates": [14.1193, 40.8193]}}, {"type": "Feature", "id": "http://data.archaeology.link/data/ancientports/4244", "name": "isle of Joinville in front of Cherchel, with ancient lighthouse (4244)", "dateprops": [], "properties": {}, "geometry": {"type": "Point", "coordinates": [2.18977, 36.61208]}}, {"type": "Feature", "id": "http://data.archaeology.link/data/ancientports/986", "name": "Baia, two concrete moles over 200 m long, and several Roman villas: Terme di Mercurio, Terme di Sosandra, Terme di Venere, Templo di Diana, Villa dei Pisoni, Palazzo dei Cesari (986)", "dateprops": [], "properties": {}, "geometry": {"type": "Point", "coordinates": [14.0767, 40.8185]}}, {"type": "Feature", "id": "http://data.archaeology.link/data/ancientports/4175", "name": "Carthago, rectangular commercial port, near Phoenician Tophet of Salammb\u00f4 (4175)", "dateprops": [], "properties": {}, "geometry": {"type": "Point", "coordinates": [10.325, 36.8415]}}, {"type": "Feature", "id": "http://data.archaeology.link/data/ancientports/666", "name": "Marseille, Vieux Port, place Jules Verne & place Villeneuve-Bargemon (see also nearby Musee des docks: Dolia warehouse) (666)", "dateprops": [], "properties": {}, "geometry": {"type": "Point", "coordinates": [5.3696, 43.29685]}}, {"type": "Feature", "id": "http://data.archaeology.link/data/ancientports/3377", "name": "Viransehir, Mezitli, west of Mersin, on R Mezitli (3377)", "dateprops": [], "properties": {}, "geometry": {"type": "Point", "coordinates": [34.54205, 36.73882]}}, {"type": "Feature", "id": "http://data.archaeology.link/data/ancientports/1013_1", "name": "isola di Gallo Lungo (1013_1)", "dateprops": [], "properties": {}, "geometry": {"type": "Point", "coordinates": [14.43365, 40.5825]}}, {"type": "Feature", "id": "http://data.archaeology.link/data/ancientports/1295", "name": "Torre del Cerrano, with several pilae (1295)", "dateprops": [], "properties": {}, "geometry": {"type": "Point", "coordinates": [14.08945, 42.58497]}}, {"type": "Feature", "id": "http://data.archaeology.link/data/ancientports/962_1", "name": "Spiaggia di Fontania, with Roman villa La Catena, La Nave, and many others on Spiaggia Serapo and around Gaeta (962_1)", "dateprops": [], "properties": {}, "geometry": {"type": "Point", "coordinates": [13.55314, 41.20846]}}, {"type": "Feature", "id": "http://data.archaeology.link/data/ancientports/1246", "name": "Porto Adriano, at San Cataldo near Lecce (1246)", "dateprops": [], "properties": {}, "geometry": {"type": "Point", "coordinates": [18.30798, 40.38646]}}, {"type": "Feature", "id": "http://data.archaeology.link/data/ancientports/984", "name": "Punta di Pennata, pilae within the harbour (984)", "dateprops": [], "properties": {}, "geometry": {"type": "Point", "coordinates": [14.08524, 40.7914]}}, {"type": "Feature", "id": "http://data.archaeology.link/data/ancientports/993", "name": "Nisida, very large pila of over 1500 m3 remaining from an arched mole (993)", "dateprops": [], "properties": {}, "geometry": {"type": "Point", "coordinates": [14.16893, 40.79615]}}, {"type": "Feature", "id": "http://data.archaeology.link/data/ancientports/994", "name": "Roman villa at Posillipo, protected by row of pilae (994)", "dateprops": [], "properties": {}, "geometry": {"type": "Point", "coordinates": [14.1883, 40.793]}}, {"type": "Feature", "id": "http://data.archaeology.link/data/ancientports/3934_3", "name": "Commercial port (3934_3)", "dateprops": [], "properties": {}, "geometry": {"type": "Point", "coordinates": [29.9017, 31.2054]}}], "numberMatched": 42, "numberReturned": 42, "bbox": [2.18977, 31.2054, 34.89, 43.43132], "crs": "http://www.opengis.net/def/crs/OGC/1.3/CRS84"}