{"type": "FeatureCollection", "id": "http://data.archaeology.link/data/ancientports/Slipway_collection", "name": "Slipway Instances Collection", "features": [{"type": "Feature", "id": "http://data.archaeology.link/data/ancientports/4158", "name": "Kerkouane  (4158)", "dateprops": [], "properties": {}, "geometry": {"type": "Point", "coordinates": [11.1005, 36.94425]}}, {"type": "Feature", "id": "http://data.archaeology.link/data/ancientports/2315", "name": "Agios Georgios Bay, on the isle of Alimnia (2315)", "dateprops": [], "properties": {}, "geometry": {"type": "Point", "coordinates": [27.7084, 36.2658]}}, {"type": "Feature", "id": "http://data.archaeology.link/data/ancientports/3280", "name": "Tersane bay on islet near Karaca\u00f6ren island (3280)", "dateprops": [], "properties": {}, "geometry": {"type": "Point", "coordinates": [29.05576, 36.54028]}}, {"type": "Feature", "id": "http://data.archaeology.link/data/ancientports/2891_1", "name": "Rustafjaell's 'East Harbour', on the isthmus of the peninsula of Erdek, Strabo, 12, 8 mentions a closable double harbour with many shipsheds (2891_1)", "dateprops": [], "properties": {}, "geometry": {"type": "Point", "coordinates": [27.894, 40.388]}}, {"type": "Feature", "id": "http://data.archaeology.link/data/ancientports/1584", "name": "Katoxi, Trikardo, now inland (1584)", "dateprops": [], "properties": {}, "geometry": {"type": "Point", "coordinates": [21.19364, 38.41143]}}, {"type": "Feature", "id": "http://data.archaeology.link/data/ancientports/1236_1", "name": "Dwejra bay, with undated slipways, on the isle of Gozo (1236_1)", "dateprops": [], "properties": {}, "geometry": {"type": "Point", "coordinates": [14.19175, 36.0483]}}, {"type": "Feature", "id": "http://data.archaeology.link/data/ancientports/3002", "name": "Komo beach, with world's oldest Minoan slipway? Possibly sheltered by offshore Papadoplaka islet? (3002)", "dateprops": [], "properties": {}, "geometry": {"type": "Point", "coordinates": [24.7607, 35.0129]}}, {"type": "Feature", "id": "http://data.archaeology.link/data/ancientports/2301", "name": "Mandraki harbour, Kos, on the isle of Kos, Istank\u00f6y (2301)", "dateprops": [], "properties": {}, "geometry": {"type": "Point", "coordinates": [27.2865, 36.89477]}}, {"type": "Feature", "id": "http://data.archaeology.link/data/ancientports/1130", "name": "Porto Lachio, near Via Diaz at Syracuse (1130)", "dateprops": [], "properties": {}, "geometry": {"type": "Point", "coordinates": [15.29, 37.0693]}}, {"type": "Feature", "id": "http://data.archaeology.link/data/ancientports/3443", "name": "slipway at Ras al-Qalaat, Anfeh, Enfe (3443)", "dateprops": [], "properties": {}, "geometry": {"type": "Point", "coordinates": [35.72547, 34.36146]}}, {"type": "Feature", "id": "http://data.archaeology.link/data/ancientports/2083", "name": "Antiparos, on the isle of Antiparos (2083)", "dateprops": [], "properties": {}, "geometry": {"type": "Point", "coordinates": [25.09131, 37.04465]}}, {"type": "Feature", "id": "http://data.archaeology.link/data/ancientports/2041", "name": "Pisses, on the isle of Kea, M\u00fcrted (2041)", "dateprops": [], "properties": {}, "geometry": {"type": "Point", "coordinates": [24.27556, 37.59836]}}, {"type": "Feature", "id": "http://data.archaeology.link/data/ancientports/1643", "name": "Passalimani (1643)", "dateprops": [], "properties": {}, "geometry": {"type": "Point", "coordinates": [24.05395, 37.6739]}}, {"type": "Feature", "id": "http://data.archaeology.link/data/ancientports/4076", "name": "Leptis Magna, Lepcis Magna, with ancient lighthouse, on wadi Lebda (4076)", "dateprops": [], "properties": {}, "geometry": {"type": "Point", "coordinates": [14.3008, 32.6376]}}, {"type": "Feature", "id": "http://data.archaeology.link/data/ancientports/3487", "name": "Dor, Dora, Love Bay (3487)", "dateprops": [], "properties": {}, "geometry": {"type": "Point", "coordinates": [34.91652, 32.6182]}}, {"type": "Feature", "id": "http://data.archaeology.link/data/ancientports/666", "name": "Marseille, Vieux Port, place Jules Verne & place Villeneuve-Bargemon (see also nearby Musee des docks: Dolia warehouse) (666)", "dateprops": [], "properties": {}, "geometry": {"type": "Point", "coordinates": [5.3696, 43.29685]}}, {"type": "Feature", "id": "http://data.archaeology.link/data/ancientports/1965", "name": "Lechion, inner harbour with from west to east: west basin, central basin, east basin, harbour entrance canal (1965)", "dateprops": [], "properties": {}, "geometry": {"type": "Point", "coordinates": [22.88619, 37.93213]}}, {"type": "Feature", "id": "http://data.archaeology.link/data/ancientports/3937", "name": "Harbour basin inside the Port of Eunostos, Strabo, 17, 1 mentions a closable dug basin (3937)", "dateprops": [], "properties": {}, "geometry": {"type": "Point", "coordinates": [29.88205, 31.1886]}}, {"type": "Feature", "id": "http://data.archaeology.link/data/ancientports/1763", "name": "Koutsoupia (1763)", "dateprops": [], "properties": {}, "geometry": {"type": "Point", "coordinates": [22.818, 39.8153]}}, {"type": "Feature", "id": "http://data.archaeology.link/data/ancientports/61_4", "name": "Bronze Age settlement at Must Farm (61_4)", "dateprops": [], "properties": {}, "geometry": {"type": "Point", "coordinates": [-0.1773, 52.5552]}}, {"type": "Feature", "id": "http://data.archaeology.link/data/ancientports/3234", "name": "Cnide West, former isle of Triopion now connected to mainland, Cape Kriou (3234)", "dateprops": [], "properties": {}, "geometry": {"type": "Point", "coordinates": [27.37182, 36.68629]}}, {"type": "Feature", "id": "http://data.archaeology.link/data/ancientports/2944_1", "name": "West side of Rethymno, note the slipways located west of the castle, still partly visible under the coastal boulevard (2944_1)", "dateprops": [], "properties": {}, "geometry": {"type": "Point", "coordinates": [24.46869, 35.37107]}}, {"type": "Feature", "id": "http://data.archaeology.link/data/ancientports/2959", "name": "Niros, Nirou Khani, Haghioi Theodoroi, 2 km east of the temple of Zeus Thenatas ; rock-cut structure visited by several famous authors. I would favour a twin slipway 2 x 5 m wide and 46 m long (see GE picture) (2959)", "dateprops": [], "properties": {}, "geometry": {"type": "Point", "coordinates": [25.24323, 35.33373]}}, {"type": "Feature", "id": "http://data.archaeology.link/data/ancientports/859", "name": "Baratti, near Populonia (859)", "dateprops": [], "properties": {}, "geometry": {"type": "Point", "coordinates": [10.5014, 42.9924]}}, {"type": "Feature", "id": "http://data.archaeology.link/data/ancientports/1843", "name": "Avdira, in Thrace, east of R Nestos delta (1843)", "dateprops": [], "properties": {}, "geometry": {"type": "Point", "coordinates": [24.96961, 40.94661]}}, {"type": "Feature", "id": "http://data.archaeology.link/data/ancientports/2088", "name": "Naoussa, on the isle of Paros, Bara (2088)", "dateprops": [], "properties": {}, "geometry": {"type": "Point", "coordinates": [25.24672, 37.12569]}}, {"type": "Feature", "id": "http://data.archaeology.link/data/ancientports/3091", "name": "Lambousa, with large fish tank (3091)", "dateprops": [], "properties": {}, "geometry": {"type": "Point", "coordinates": [33.19323, 35.35648]}}, {"type": "Feature", "id": "http://data.archaeology.link/data/ancientports/3250", "name": "Arsenal Bay, Bozukkale in front of Rhodes (3250)", "dateprops": [], "properties": {}, "geometry": {"type": "Point", "coordinates": [28.0093, 36.5761]}}, {"type": "Feature", "id": "http://data.archaeology.link/data/ancientports/3051", "name": "Larnaca, with slipways at Bamboula (3051)", "dateprops": [], "properties": {}, "geometry": {"type": "Point", "coordinates": [33.6329, 34.92042]}}, {"type": "Feature", "id": "http://data.archaeology.link/data/ancientports/2933", "name": "Slipway below temple of Panagia Arkoudiotiussa, Katholiko monastery (2933)", "dateprops": [], "properties": {}, "geometry": {"type": "Point", "coordinates": [24.15027, 35.59227]}}, {"type": "Feature", "id": "http://data.archaeology.link/data/ancientports/2030", "name": "Slipway in the Bay of Potamos, near Kastro, on the isle of Anticythera (2030)", "dateprops": [], "properties": {}, "geometry": {"type": "Point", "coordinates": [23.29438, 35.88912]}}, {"type": "Feature", "id": "http://data.archaeology.link/data/ancientports/1630", "name": "Mounikhias, with possibly one lighthouse on each breakwater (1630)", "dateprops": [], "properties": {}, "geometry": {"type": "Point", "coordinates": [23.66039, 37.93718]}}, {"type": "Feature", "id": "http://data.archaeology.link/data/ancientports/1866", "name": "south of Kolonna hill, on Isle of Egina (1866)", "dateprops": [], "properties": {}, "geometry": {"type": "Point", "coordinates": [23.42464, 37.74765]}}, {"type": "Feature", "id": "http://data.archaeology.link/data/ancientports/2918", "name": "Falasarna, Phalasarna. There are only a few places protected from the western waves on the West coast of Crete;  the only good natural shelter from a nautical point of view is at Gramvousa (Balos Beach). However, the ancient port was identified as an artificial dug-out basin at the toe of a promontory located 1 km north of the city of Phalasarna, it was uplifted 6.5 m during the 365 AD earthquake (2918)", "dateprops": [], "properties": {}, "geometry": {"type": "Point", "coordinates": [23.56944, 35.51075]}}, {"type": "Feature", "id": "http://data.archaeology.link/data/ancientports/3454", "name": "Beyrouth, Beirut, Minet el-Hosn under Venus Towers (3454)", "dateprops": [], "properties": {}, "geometry": {"type": "Point", "coordinates": [35.49732, 33.8998]}}, {"type": "Feature", "id": "http://data.archaeology.link/data/ancientports/3934_1", "name": "Royal port near Palace (3934_1)", "dateprops": [], "properties": {}, "geometry": {"type": "Point", "coordinates": [29.9037, 31.2106]}}, {"type": "Feature", "id": "http://data.archaeology.link/data/ancientports/1628", "name": "Le Piree, The Piraeus, with a possible lighthouse at Themistocles' tomb (1628)", "dateprops": [], "properties": {}, "geometry": {"type": "Point", "coordinates": [23.6379, 37.9399]}}, {"type": "Feature", "id": "http://data.archaeology.link/data/ancientports/467", "name": "Son Real, 500 m ESE of megalithic necropolis, and in front of Illot des Porros islet with more ruins (467)", "dateprops": [], "properties": {}, "geometry": {"type": "Point", "coordinates": [3.188, 39.7533]}}, {"type": "Feature", "id": "http://data.archaeology.link/data/ancientports/351", "name": "Carteya, El Rocadillo San Roque, outlet of R Guadarranque in the bay of Algeciras (351)", "dateprops": [], "properties": {}, "geometry": {"type": "Point", "coordinates": [-5.41031, 36.18321]}}, {"type": "Feature", "id": "http://data.archaeology.link/data/ancientports/2188", "name": "on South side of Mytilini, on the isle of Lesbos, Lesvos; connected to the North port by Euripos canal, with possible lighthouse near the circular municipal swimming pool and statue of Liberty (2188)", "dateprops": [], "properties": {}, "geometry": {"type": "Point", "coordinates": [26.5592, 39.1139]}}, {"type": "Feature", "id": "http://data.archaeology.link/data/ancientports/3373", "name": "Ayas near Yemiskumu, former island now connected to mainland (3373)", "dateprops": [], "properties": {}, "geometry": {"type": "Point", "coordinates": [34.1747, 36.4819]}}, {"type": "Feature", "id": "http://data.archaeology.link/data/ancientports/345", "name": "Bolonia, large Roman fish processing factory with slipway & quays now eroded by the sea (345)", "dateprops": [], "properties": {}, "geometry": {"type": "Point", "coordinates": [-5.7761, 36.0888]}}, {"type": "Feature", "id": "http://data.archaeology.link/data/ancientports/2968", "name": "Voulsima beach, in front of Minoan Vrokastro site on top of the cliff (2968)", "dateprops": [], "properties": {}, "geometry": {"type": "Point", "coordinates": [25.7415, 35.12734]}}, {"type": "Feature", "id": "http://data.archaeology.link/data/ancientports/3934_6", "name": "Western ports and shipyards (3934_6)", "dateprops": [], "properties": {}, "geometry": {"type": "Point", "coordinates": [29.8874, 31.2051]}}, {"type": "Feature", "id": "http://data.archaeology.link/data/ancientports/3442", "name": "slipway at Ras al-Qalaat, Anfeh, Enfe (3442)", "dateprops": [], "properties": {}, "geometry": {"type": "Point", "coordinates": [35.72918, 34.36088]}}, {"type": "Feature", "id": "http://data.archaeology.link/data/ancientports/4007", "name": "Tolmeita, Tulmaythah, port of al-Marj (4007)", "dateprops": [], "properties": {}, "geometry": {"type": "Point", "coordinates": [20.9491, 32.7156]}}, {"type": "Feature", "id": "http://data.archaeology.link/data/ancientports/2251", "name": "Chio, with Roman quarry at Latomi, on the isle of Chios (2251)", "dateprops": [], "properties": {}, "geometry": {"type": "Point", "coordinates": [26.1342, 38.3764]}}, {"type": "Feature", "id": "http://data.archaeology.link/data/ancientports/1117", "name": "Giardini-Naxos (1117)", "dateprops": [], "properties": {}, "geometry": {"type": "Point", "coordinates": [15.2694, 37.8239]}}, {"type": "Feature", "id": "http://data.archaeology.link/data/ancientports/11", "name": "Leiden, Roomburg, on R Oude Rijn (11)", "dateprops": [], "properties": {}, "geometry": {"type": "Point", "coordinates": [4.51841, 52.14971]}}, {"type": "Feature", "id": "http://data.archaeology.link/data/ancientports/3180", "name": "Dilek Daglari, Lohmann's western fort 'MYK 64', Lesagha (3180)", "dateprops": [], "properties": {}, "geometry": {"type": "Point", "coordinates": [27.07053, 37.68071]}}, {"type": "Feature", "id": "http://data.archaeology.link/data/ancientports/3476", "name": "Acre, Akko, with ancient ashlar breakwater under modern one, with ancient lighthouse on Tower of Flies (3476)", "dateprops": [], "properties": {}, "geometry": {"type": "Point", "coordinates": [35.07, 32.9199]}}, {"type": "Feature", "id": "http://data.archaeology.link/data/ancientports/2977", "name": "Trypitos Setaea, with slipway (2977)", "dateprops": [], "properties": {}, "geometry": {"type": "Point", "coordinates": [26.1308, 35.1985]}}, {"type": "Feature", "id": "http://data.archaeology.link/data/ancientports/1629", "name": "Le Piree, The Piraeus (1629)", "dateprops": [], "properties": {}, "geometry": {"type": "Point", "coordinates": [23.64859, 37.93678]}}, {"type": "Feature", "id": "http://data.archaeology.link/data/ancientports/2969", "name": "Gournia  (2969)", "dateprops": [], "properties": {}, "geometry": {"type": "Point", "coordinates": [25.7907, 35.1148]}}, {"type": "Feature", "id": "http://data.archaeology.link/data/ancientports/3522", "name": "Ayn Sukhna, at Portrait Hotel, with ship remains in galleries (3522)", "dateprops": [], "properties": {}, "geometry": {"type": "Point", "coordinates": [32.344, 29.5843]}}, {"type": "Feature", "id": "http://data.archaeology.link/data/ancientports/4000", "name": "Susah, Soussa (4000)", "dateprops": [], "properties": {}, "geometry": {"type": "Point", "coordinates": [21.9685, 32.9039]}}, {"type": "Feature", "id": "http://data.archaeology.link/data/ancientports/2268", "name": "Pythagoreio, on the isle of Samos (2268)", "dateprops": [], "properties": {}, "geometry": {"type": "Point", "coordinates": [26.94356, 37.68932]}}, {"type": "Feature", "id": "http://data.archaeology.link/data/ancientports/1131", "name": "Port of Arethuse, on Via Vittorio Veneto, on the isle of Ortigia (1131)", "dateprops": [], "properties": {}, "geometry": {"type": "Point", "coordinates": [15.2943, 37.0653]}}, {"type": "Feature", "id": "http://data.archaeology.link/data/ancientports/2092", "name": "Santa Maria, on the isle of Paros, Bara (2092)", "dateprops": [], "properties": {}, "geometry": {"type": "Point", "coordinates": [25.27947, 37.13251]}}, {"type": "Feature", "id": "http://data.archaeology.link/data/ancientports/2316", "name": "Emporeio Bay, on the isle of Alimnia (2316)", "dateprops": [], "properties": {}, "geometry": {"type": "Point", "coordinates": [27.718, 36.265]}}, {"type": "Feature", "id": "http://data.archaeology.link/data/ancientports/2610", "name": "Kerch (2610)", "dateprops": [], "properties": {}, "geometry": {"type": "Point", "coordinates": [36.4685, 45.351]}}, {"type": "Feature", "id": "http://data.archaeology.link/data/ancientports/1147", "name": "Punta Secca and Fontana Nuova (1147)", "dateprops": [], "properties": {}, "geometry": {"type": "Point", "coordinates": [14.50732, 36.78867]}}, {"type": "Feature", "id": "http://data.archaeology.link/data/ancientports/4175", "name": "Carthago, rectangular commercial port, near Phoenician Tophet of Salammb\u00f4 (4175)", "dateprops": [], "properties": {}, "geometry": {"type": "Point", "coordinates": [10.325, 36.8415]}}, {"type": "Feature", "id": "http://data.archaeology.link/data/ancientports/3934_2", "name": "Naval base (3934_2)", "dateprops": [], "properties": {}, "geometry": {"type": "Point", "coordinates": [29.904, 31.2085]}}, {"type": "Feature", "id": "http://data.archaeology.link/data/ancientports/3037_2", "name": "North of Campanopetra Basilica (3037_2)", "dateprops": [], "properties": {}, "geometry": {"type": "Point", "coordinates": [33.9078, 35.1805]}}, {"type": "Feature", "id": "http://data.archaeology.link/data/ancientports/1568", "name": "famous naval battle in front of the outlet of the Ambracian gulf, with 10 commemorative seized ships placed in sheds (1568)", "dateprops": [], "properties": {}, "geometry": {"type": "Point", "coordinates": [20.7682, 38.953]}}, {"type": "Feature", "id": "http://data.archaeology.link/data/ancientports/2157", "name": "Thassos, Limenas, Limenaria, on the North coast of the isle of Thasos, with its ancient lighthouse and another lighthouse at Cape Phanari (2157)", "dateprops": [], "properties": {}, "geometry": {"type": "Point", "coordinates": [24.7122, 40.7813]}}, {"type": "Feature", "id": "http://data.archaeology.link/data/ancientports/1966_1", "name": "Posidonia (1966_1)", "dateprops": [], "properties": {}, "geometry": {"type": "Point", "coordinates": [22.95954, 37.95119]}}, {"type": "Feature", "id": "http://data.archaeology.link/data/ancientports/2095", "name": "Drios, on the isle of Paros, Bara  (2095)", "dateprops": [], "properties": {}, "geometry": {"type": "Point", "coordinates": [25.22827, 37.00294]}}, {"type": "Feature", "id": "http://data.archaeology.link/data/ancientports/3382", "name": "Aynaz Batakligi swamps, Kulak, near outlet of R Tarsus (3382)", "dateprops": [], "properties": {}, "geometry": {"type": "Point", "coordinates": [34.876, 36.804]}}, {"type": "Feature", "id": "http://data.archaeology.link/data/ancientports/1182_2", "name": "Tonnara del Secco, near San Vito lo Capo (1182_2)", "dateprops": [], "properties": {}, "geometry": {"type": "Point", "coordinates": [12.7692, 38.1673]}}, {"type": "Feature", "id": "http://data.archaeology.link/data/ancientports/2089", "name": "Isle of Oikonomou in the bay of Naousa, with Neolithic settlement, on the isle of Paros, Bara (2089)", "dateprops": [], "properties": {}, "geometry": {"type": "Point", "coordinates": [25.2649, 37.1287]}}, {"type": "Feature", "id": "http://data.archaeology.link/data/ancientports/3525", "name": "Wadi el-Jarf, the oldest breakwater found to date & with BA ship remains in galleries (3525)", "dateprops": [], "properties": {}, "geometry": {"type": "Point", "coordinates": [32.68094, 28.88887]}}, {"type": "Feature", "id": "http://data.archaeology.link/data/ancientports/1971", "name": "Isle of Corfu, Kerkira (1971)", "dateprops": [], "properties": {}, "geometry": {"type": "Point", "coordinates": [19.77174, 39.71836]}}, {"type": "Feature", "id": "http://data.archaeology.link/data/ancientports/4176", "name": "Cothon of Carthage: circular naval base (4176)", "dateprops": [], "properties": {}, "geometry": {"type": "Point", "coordinates": [10.3255, 36.845]}}, {"type": "Feature", "id": "http://data.archaeology.link/data/ancientports/1642", "name": "Sounion, most southerly point of the Attic, with steep slipway (1642)", "dateprops": [], "properties": {}, "geometry": {"type": "Point", "coordinates": [24.0227, 37.6524]}}, {"type": "Feature", "id": "http://data.archaeology.link/data/ancientports/3373_1", "name": "Ayas near Yemiskumu, former island now connected to mainland (3373_1)", "dateprops": [], "properties": {}, "geometry": {"type": "Point", "coordinates": [34.1739, 36.4812]}}, {"type": "Feature", "id": "http://data.archaeology.link/data/ancientports/1978", "name": "Circular harbour basin between Desylla and Kokotou-Arion districts on Corfu, on Ormos Garitsa (1978)", "dateprops": [], "properties": {}, "geometry": {"type": "Point", "coordinates": [19.92325, 39.6089]}}, {"type": "Feature", "id": "http://data.archaeology.link/data/ancientports/1122", "name": "Ognina (1122)", "dateprops": [], "properties": {}, "geometry": {"type": "Point", "coordinates": [15.11854, 37.52921]}}, {"type": "Feature", "id": "http://data.archaeology.link/data/ancientports/466", "name": "Can Picafort, with more slipways 300 m SE of the large slipway (466)", "dateprops": [], "properties": {}, "geometry": {"type": "Point", "coordinates": [3.1624, 39.7648]}}, {"type": "Feature", "id": "http://data.archaeology.link/data/ancientports/3001", "name": "Matala, N.C.Flemming and P.A. Pirazzoli, 1981 mention this slipway in the SE corner of the Matala creek, below the 'Hippies' cave' (3001)", "dateprops": [], "properties": {}, "geometry": {"type": "Point", "coordinates": [24.74757, 34.99284]}}, {"type": "Feature", "id": "http://data.archaeology.link/data/ancientports/172", "name": "Irun, Estuary of R Bidasoa, export of silver & lead (172)", "dateprops": [], "properties": {}, "geometry": {"type": "Point", "coordinates": [-1.7864, 43.3417]}}, {"type": "Feature", "id": "http://data.archaeology.link/data/ancientports/1978_2", "name": "Giourgia, in the Figareto district, near bay of Chalikiopoulo on Corfu (1978_2)", "dateprops": [], "properties": {}, "geometry": {"type": "Point", "coordinates": [19.9173, 39.5976]}}, {"type": "Feature", "id": "http://data.archaeology.link/data/ancientports/1090", "name": "Laghi di Sibari, Francavilla Marittima, on R Crati (1090)", "dateprops": [], "properties": {}, "geometry": {"type": "Point", "coordinates": [16.49119, 39.71704]}}, {"type": "Feature", "id": "http://data.archaeology.link/data/ancientports/2952", "name": "Poros/Katsambas, at outlet of R Katsaba, near modern port of Iraklio (2952)", "dateprops": [], "properties": {}, "geometry": {"type": "Point", "coordinates": [25.15217, 35.34098]}}, {"type": "Feature", "id": "http://data.archaeology.link/data/ancientports/3942", "name": "Qaryat Shakush, near Huwariya, with ancient lighthouse (3942)", "dateprops": [], "properties": {}, "geometry": {"type": "Point", "coordinates": [29.65897, 30.99724]}}, {"type": "Feature", "id": "http://data.archaeology.link/data/ancientports/2318", "name": "Naval base at Port Mandraki with its supposed Colossus of Rhodes (acting as a lighthouse?). Diodorus (Hist, 20, 85-86) distinguishes a \u00ab small port \u00bb and a \u00ab large port \u00bb during the siege of Demetrius in 303 BC. The small port would thus be the port of Mandraki now protected by jetties decorated with a deer on each side. (2318)", "dateprops": [], "properties": {}, "geometry": {"type": "Point", "coordinates": [28.22624, 36.45097]}}, {"type": "Feature", "id": "http://data.archaeology.link/data/ancientports/2084", "name": "Isle of Remmatonisi between Paros and Antiparos (2084)", "dateprops": [], "properties": {}, "geometry": {"type": "Point", "coordinates": [25.09467, 37.0434]}}, {"type": "Feature", "id": "http://data.archaeology.link/data/ancientports/1603_1", "name": "Agios Demetrios islet, with slipway (1603_1)", "dateprops": [], "properties": {}, "geometry": {"type": "Point", "coordinates": [22.42437, 38.391]}}], "numberMatched": 89, "numberReturned": 89, "bbox": [-5.7761, 28.88887, 36.4685, 52.5552], "crs": "http://www.opengis.net/def/crs/EPSG/0/4326"}